,Unnamed: 0,address,address_rus,atm_group,id,lat,long,target
0,0,"EMELYANOVA,34          Y-SAKHALINSK   ","улица А.О. Емельянова, 34, Южно-Сахалинск, Сахалинская область, Россия",32.0,8526.0,46.940995,142.738319,0.011499820918204876
1,1,"KOMSOMOLSKAYA,259B     Y.SAKHALINSK   ","Комсомольская улица, 259, Южно-Сахалинск, Сахалинская область, Россия",32.0,8532.0,46.937353,142.753348,0.029710265035085937
2,2,"KOMMUN. PR., 32        YUZHNO SAKHAL  ","Коммунистический проспект, Южно-Сахалинск, Сахалинская область, Россия",32.0,8533.0,46.959413,142.74111299999998,0.009539960883255441
3,3,"LENINGRADSKIY PR.,76A  MOSCOW         ","Ленинградский проспект, 76А, Москва, Россия, 125315",32.0,8684.0,55.805827,37.515146,-0.09403462447649943
4,4,"GVARDEYSKAYA PL., 2    NORILSK        ","Гвардейская площадь, 2, Норильск, Красноярский край, Россия, 663302",32.0,37.0,69.343541,88.211228,0.07927735200966299
5,5,"RUSSKAYA, 16           VLADIVOSTOK    ","Русская улица, 16, Владивосток, Приморский край, Россия, 690039",32.0,313.0,43.165859999999995,131.90821200000002,-0.14500123147475488
6,6,"SHUKHOVA, 14           MOSCOW         ","улица Шухова, 14, Москва, Россия, 115162",32.0,335.0,55.716859,37.613063000000004,-0.02468223523576437
7,7,"ADMIRALA FOKINA, 25    VLADIVOSTOK    ","улица Адмирала Фокина, 25, Владивосток, Приморский край, Россия, 690091",32.0,358.0,43.117174,131.885503,-0.13342588349623222
8,8,Zhivopisnaia 136       d.Velednikov   ,"деревня Веледниково, городской округ Истра, Московская область, Россия",32.0,2895.0,55.799765,37.116015999999995,0.14146935333316155
9,9,BEKESHSKAYA 39            PENZA       ,"Бекешская улица, 39, Пенза, Россия, 440018",496.5,1975.0,53.203219999999995,44.978826,0.01725893326633763
10,10,B.MOSKOVSKAYA 90A         VLADIMIR    ,"Большая Московская улица, 90А, Владимир, Россия, 600000",496.5,1977.0,56.132925,40.419184,-0.013949004711653756
11,11,GORKOGO 20                TAMBOV      ,"улица Максима Горького, 20, Тамбов, Россия",496.5,1992.0,52.718497,41.454511,-0.04843573940879664
12,12,KURASHOVA 28/1            YAKUTSK     ,"улица Курашова, 28/1, Якутск, Республика Саха (Якутия), Россия, 677000",496.5,1998.0,62.033258999999994,129.73638200000002,-0.06429329744918175
13,13,LENINA 32                 MUROM       ,"улица Ленина, 32, Муром, Владимирская область, Россия, 602267",496.5,2006.0,55.577107999999996,42.05437,-0.1001214289644553
14,14,BOROVSKAYA 5              BALABANOVO  ,"Боровская улица, 5, Балабаново, Боровский район, Калужская область, Россия, 249000",496.5,2011.0,55.180597999999996,36.655611,-0.0008294956654186244
15,15,SOVETSKAYA 21             ZHUKOV      ,"Советская улица, 21, Жуков, Калужская область, Россия, 249191",496.5,2012.0,55.027991,36.750518,-0.0476678404207127
16,16,DORZHIEVA 24A             MUKHORSHIBIR,"улица Доржиева, 24А, село Мухоршибирь, Республика Бурятия, Россия",496.5,2017.0,51.048934,107.822322,0.017372643984509075
17,17,SADOVAYA 27B              KRIVODANOVKA,"Садовая улица, 27, село Криводановка, Новосибирский район, Новосибирская область, Россия",496.5,2022.0,55.086363,82.64683000000001,-0.02765736578751833
18,18,SOVETSKAYA 19             KUGESI      ,"Советская улица, 19, поселок городского типа Кугеси, Чебоксарский район, Чувашская Республика, Россия, 429500",496.5,2023.0,56.029642,47.294593,-0.07787119186138325
19,19,MELNIKOVA 106             CHERLAK     ,"улица Мельникова, 106, посёлок городского типа Черлак, Черлакский район, Омская область, Россия, 646250",496.5,2027.0,54.151887,74.79789,-0.050626685528738495
20,20,POBEDY 67/2               PETROPAVLOVS,"проспект Победы, 67/2, Петропавловск-Камчатский, Камчатский край, Россия, 683902",496.5,2033.0,53.070803000000005,158.58751999999998,0.019060742852095674
21,21,POLEVAYA 4                MEDVEDEVO   ,"Полевая улица, 4, посёлок городского типа Медведево, Медведевский район, Республика Марий Эл, Россия, 425200",496.5,2034.0,56.63759,47.803974,-0.027475196122957755
22,22,UPITA 5A                  KIROV       ,"улица Андрея Упита, 5А, Киров, Россия, 610050",496.5,2035.0,58.605564,49.591163,-0.10137559085407266
23,23,VOSTOCHNAYA 42/7          ORENBURG    ,"Восточная улица, 42/7, Оренбург, Россия, 460021",496.5,2850.0,51.784175,55.153504000000005,-0.08652950912830405
24,24,AMURSKAYA 13              CHITA       ,"Амурская улица, 13, Чита, Забайкальский край, Россия, 672039",496.5,2873.0,52.023722,113.513428,-0.07328752900727235
25,25,VOROVSKOGO 43             KIROV       ,"улица Воровского, 43, Киров, Россия",496.5,2876.0,58.594438000000004,49.666657,-0.11059736826592738
26,26,LENINA 3                  PRISTEN     ,"улица Ленина, 3, посёлок городского типа Пристень, Пристенский район, Курская область, Россия, 306200",496.5,2877.0,51.235052,36.694293,-0.07879399867799483
27,27,KARLA MARKSA 76/1         KURGAN      ,"улица Карла Маркса, 76/1, Курган, Россия",496.5,2897.0,55.44224499999999,65.35418,-0.02614658823194464
28,28,KALACHINSKAYA 25          KALACHINSK  ,"Калачинская улица, 25, Калачинск, Омская область, Россия, 646900",496.5,2900.0,55.047817,74.588663,0.018208827536353327
29,29,ZAVOYKO 7                 ELIZOVO     ,"улица Завойко, 7, Елизово, Камчатский край, Россия, 684000",496.5,2914.0,53.1871,158.383863,0.06135092766982592
30,30,19-LINIYA 10              IVANOVO     ,"19-я линия, 10, Иваново, Россия, 153031",496.5,2923.0,56.989885,40.932023,-0.04473002150749481
31,31,DEYNEKI 19                KURSK       ,"улица Дейнеки, 19, микрорайон КЗТЗ, Курск, Россия, 305047",496.5,2951.0,51.704063,36.142449,-0.06321061891530111
32,32,KRASNIY PUT' 9            KRUTINKA    ,"улица Красный Путь, 9, посёлок городского типа Крутинка, Крутинский район, Омская область, Россия, 646130",496.5,2973.0,56.011686,71.508439,-0.056077265567492214
33,33,PERVOMAYSKAYA 11          POCHEP      ,"Первомайская улица, 11, Почеп, Брянская область, Россия, 243400",496.5,4446.0,52.928305,33.458785999999996,-0.07275458151164306
34,34,OKTYABRSKAYA 138          PRYAMITSYNO ,"Октябрьская улица, 138, посёлок городского типа Прямицыно, Октябрьский район, Курская область, Россия, 307200",496.5,4447.0,51.65787,35.942753,-0.11667027290152368
35,35,BORISA BOGATKOVA 248      NOVOSIBIRSK ,"улица Бориса Богаткова, 248, Новосибирск, Россия, 630089",496.5,4458.0,55.037515,82.978811,-0.14500123147475488
36,36,GLADKOVA 10               CHEBOKSARY  ,"улица Фёдора Гладкова, 10, Чебоксары, Чувашская Республика, Россия, 428020",496.5,4466.0,56.114525,47.247854,-0.07251412395184302
37,37,LENINA 11                 KIREYEVSK   ,"улица Ленина, 11, Киреевск, Тульская область, Россия, 301260",496.5,4470.0,53.928249,37.933231,0.003881073322463896
38,38,LENINA 56                 AKSHA       ,"улица Ленина, 52/7, село Акша, Акшинский район, Забайкальский край, Россия",496.5,4489.0,50.28123,113.28690900000001,-0.05923667427441873
39,39,VAREYKISA 2/1             ULYANOVSK   ,"улица Варейкиса, 2с1, Ульяновск, Россия",496.5,4491.0,54.256466,48.324044,-0.09805944763136047
40,40,PER. BAZARNY 4            SPASSK-DALNY,,496.5,4510.0,,,0.039190641594625805
41,41,GRIGORENKO 8              LESOZAVODSK ,"улица Григоренко, 8, Лесозаводск, Приморский край, Россия",496.5,4511.0,45.462274,133.403108,-0.029771982193639638
42,42,SEMIRECHENSKAYA 93        OMSK        ,"Семиреченская улица, 93, Омск, Россия, 644016",496.5,4512.0,54.931034,73.29666999999999,-0.12654526393216867
43,43,AVTOZAVODSKAYA 56         ULYANOVSK   ,"Автозаводская улица, 56, Ульяновск, Россия, 432008",496.5,4523.0,54.291753,48.315699,-0.12915527243317027
44,44,"MOSKOVSKIY PR-T, 19B      VORONEZH    ","Московский проспект, 19, Воронеж, Россия, 394026",496.5,4526.0,51.693681,39.181539,-0.059624818066358276
45,45,B.KHMELNITSKOGO 81        EYSK        ,"улица Богдана Хмельницкого, 81, Ейск, Краснодарский край, Россия",496.5,4542.0,46.695209000000006,38.283637,-0.03800440301022337
46,46,KALININA AVE. 15/1        TVER        ,"проспект Калинина, 15с1, Тверь, Россия, 170001",496.5,4574.0,56.853719999999996,35.865292,-0.025715052607514614
47,47,OKTIABRSKAYA 1            NAMTSY      ,"Октябрьская улица, 1, село Намцы, Намский улус, Республика Саха (Якутия), Россия, 678380",496.5,4584.0,62.71844,129.66555,-0.14500123147475488
48,48,SVOBODY 51                IVANOVO     ,"улица Свободы, 51, Иваново, Россия, 153045",496.5,4586.0,57.015939,41.005425,-0.05672162737004801
49,49,PROFINTERNA 9/25          OMSK        ,"улица Профинтерна, 9, Омск, Россия, 644082",496.5,4588.0,54.933853000000006,73.33204599999999,-0.0063364060107538285
50,50,KAZANSKY PR. 75/48        V.VOLOCHEK  ,"Казанский проспект, 75/48, Вышний Волочёк, Тверская область, Россия, 171163",496.5,4594.0,57.586330000000004,34.560713,-0.08487923386827997
51,51,KLUCHEVSKAYA 6B           ULAN-UDE    ,"Ключевская улица, 6, Улан-Удэ, Республика Бурятия, Россия, 670013",496.5,4606.0,51.820888000000004,107.63251699999999,0.04071184695182275
52,52,BONDARENKO 37             IVANOVKA    ,"улица Бондаренко, 39, село Ивановка, Ивановский район, Амурская область, Россия",496.5,4608.0,50.35649,128.00231000000002,0.01602564044011012
53,53,SOVETSKAYA 29             CHERDAKLY   ,"Советская улица, 29, посёлок городского типа Чердаклы, Чердаклинский район, Ульяновская область, Россия",496.5,4624.0,54.358775,48.852236,-0.038095996313162316
54,54,LENINA 7                  YASNOGORSK  ,"улица Ленина, 7, Ясногорск, Тульская область, Россия, 301030",496.5,4649.0,54.481354,37.694199,-0.09431827157465908
55,55,"POCHTOVIY PER, 3          ELIZOVO     ","Почтовый переулок, 3, Елизово, Камчатский край, Россия, 684005",496.5,4655.0,53.183976,158.387789,-0.022816323115855738
56,56,SHUHOVA 26                TULA        ,"улица Шухова, 26, Тула, Россия, 300004",496.5,4680.0,54.208238,37.669046,-0.09089617940169298
57,57,PROLETARSKAYA 11          P.PERVOMAYSK,"Пролетарская улица, 11, Первомайск, Нижегородская область, Россия, 607760",496.5,4685.0,54.865166,43.793364000000004,0.013068622592228196
58,58,SOVETSKAYA 21A            PETROPAVLOVK,"Советская улица, 21, Петропавловск-Камчатский, Камчатский край, Россия",496.5,4703.0,53.016529000000006,158.649756,-0.11674874615724234
59,59,LENINSKAYA 59B            ORENBURG    ,"Ленинская улица, 59, Оренбург, Россия, 460014",496.5,4712.0,51.762709,55.111885,-0.1102991528731819
60,60,"1-ST VISHNEVAYA, 17       KURSK       ","Вишневая улица, СТ Дружба-1, городской округ Ухта, Республика Коми, Россия",496.5,4713.0,63.541993999999995,53.85233,-0.05392474061619745
61,61,"STROITELEY AVE, 1V        PENZA       ","проспект Строителей, 1, Пенза, Россия, 440066",496.5,8483.0,53.220223,44.943414000000004,-0.03184849342291842
62,62,MOSKOVSKAYA 83            PENZA       ,"Московская улица, 83, Пенза, Россия, 440000",496.5,8486.0,53.197086,45.019034999999995,0.0259088806733042
63,63,MIRA 41                   PENZA       ,"улица Мира, 41, Пенза, Россия",496.5,8487.0,53.188432999999996,44.970048999999996,-0.018226296461702658
64,64,"TRUDOVAYA 1, K.1          RYAZAN      ","Трудовая улица, 1к1, Рязань, Россия, 390011",496.5,8497.0,54.603425,39.762453,-0.116827337837667
65,65,GAGARINA 29               KURAGINO    ,"переулок Гагарина, 29, посёлок городского типа Курагино, Курагинский район, Красноярский край, Россия, 662910",496.5,8500.0,53.890961,92.68066999999999,0.005782464391873453
66,66,50 LET OKTYABRYA 6        VICHUGA     ,"улица 50 лет Октября, 6, Вичуга, Ивановская область, Россия, 155331",496.5,8502.0,57.21764,41.937328,-0.10433068805502692
67,67,PODROYKINA 28             BAGAEVSKAYA ,"улица Подройкина, 28, станица Багаевская, Багаевский район, Ростовская область, Россия",496.5,8511.0,47.321464,40.369543,-0.03813813379425859
68,68,KRASNOARMEYSKAYA 233      KYZYL       ,"Красноармейская улица, 233, Кызыл, Республика Тыва, Россия, 667000",496.5,8518.0,51.715113,94.42811800000001,-0.03146751178664767
69,69,CHERNISHEVSKOGO 56/2      YAKUTSK     ,"улица Чернышевского, 56/2, Якутск, Республика Саха (Якутия), Россия, 677007",496.5,8534.0,62.011688,129.721308,-0.076109205265034
70,70,FRIDRIHA ENGELSA 88       VORONEZH    ,"улица Фридриха Энгельса, 88, Воронеж, Россия, 394018",496.5,8542.0,51.659009000000005,39.187756,-0.031863878742005726
71,71,SOVETSKAYA 54/1           DOMODEDOVO  ,"Советская улица, 54, микрорайон Северный, Домодедово, Московская область, Россия",496.5,8557.0,55.443659,37.747981,0.08008944082766974
72,72,ORDZHONIKIDZE 34          SHIMANOVSK  ,"улица Орджоникидзе, 34/25, Шимановск, Амурская область, Россия",496.5,8560.0,51.996266,127.667571,-0.06168025059653893
73,73,TEKSTILSCHIKOV 18         LENINSK-KUZN,"проспект Текстильщиков, 18, Ленинск-Кузнецкий, Кемеровская область, Россия, 652523",496.5,8566.0,54.697328000000006,86.212944,-0.05952003290871191
74,74,GAGARINA 9                CHELIABINSK ,"улица Гагарина, 9, Ленинский район, Челябинск, Россия, 454010",496.5,8575.0,55.141844999999996,61.44309499999999,-0.02900062543233648
75,75,KIROVA 42                 CHELYABINSK ,"улица Кирова, 42, Челябинск, Россия, 454084",496.5,8585.0,55.17923100000001,61.39845699999999,0.0070306132694172895
76,76,"KIROVA AVE, 27A           PYATIGORSK  ","проспект Кирова, 27А, Пятигорск, Ставропольский край, Россия",496.5,8588.0,44.03603,43.07835,-0.06341569106345421
77,77,"OKTIABRYA AVE, 16         NIZHNIY NOVG","проспект Октября, 16, микрорайон Соцгород-I, Нижний Новгород, Россия, 603043",496.5,8590.0,56.251202,43.866514,-0.048744881734817086
78,78,"MIRA AVE, 27K/1           KUVANDYK    ","проспект Мира, 27, Кувандык, Оренбургская область, Россия, 462241",496.5,8594.0,51.482219,57.376188,-0.09031216940918163
79,79,POBEDI 31B                LESOSIBIRSK ,"улица Победы, 31, Лесосибирск, Красноярский край, Россия, 662543",496.5,8601.0,58.186130000000006,92.53111,0.04380837953664935
80,80,INDUSTRIALNAYA 30         SARAPUL     ,"Индустриальная улица, 30, Сарапул, Удмуртская Республика, Россия, 427968",496.5,8617.0,56.449732,53.723485,-0.14500123147475488
81,81,LENINA 48                 SVOBODNY    ,"улица Ленина, 48, Свободный, Амурская область, Россия",496.5,8618.0,51.371970000000005,128.13935700000002,-0.12250819130927737
82,82,STAVROPOLSKAYA 100        KRASNODAR   ,"Ставропольская улица, 100, микрорайон Черёмушки, Краснодар, Россия, 350033",496.5,8619.0,45.019059999999996,38.998633,-0.04738277255446415
83,83,KHALTURINA 11             GELENDZHIK  ,"улица Халтурина, 11, Геленджик, Краснодарский край, Россия",496.5,8625.0,44.568378,38.080115,-0.020059952730303518
84,84,SCHETINKINA 12            TURAN       ,"улица Щетинкина, 14, Туран, Пий-Хемский кожуун, Республика Тыва, Россия",496.5,8643.0,52.142246,93.922393,0.0074889981901422095
85,85,BIRYUZOVA 31              MOSCOW      ,"улица Маршала Бирюзова, 31, Москва, Россия, 123060",496.5,8658.0,55.796526,37.486859,-0.07718966161291686
86,86,MYASNIKYANA 95            CHALTIR     ,"улица Мясникяна, 95, село Чалтырь, Мясниковский район, Ростовская область, Россия, 346800",496.5,8659.0,47.284715000000006,39.500702000000004,-0.09023119783684898
87,87,LENINA 19                 TOSNO       ,"проспект Ленина, 19, Тосно, Тосненское городское поселение, Ленинградская область, Россия, 187000",496.5,8660.0,59.547013,30.864595,-0.010322537100155724
88,88,CHAPAEVA 2A               SERYSHEVO   ,"улица Чапаева, 2, посёлок городского типа Серышево, Серышевский район, Амурская область, Россия, 676351",496.5,8663.0,51.092978,128.362247,-0.08702164994253997
89,89,GAGARINA 14-4             P. HOVU-AKSY,"улица Гагарина, 14, село Хову-Аксы, Чеди-Хольский кожуун, Республика Тыва, Россия",496.5,8691.0,51.131723,93.716464,-0.010148401162897476
90,90,LENINA 93                 UST-LABINSK ,"улица Ленина, 93, Усть-Лабинск, Краснодарский край, Россия, 352333",496.5,8697.0,45.215441,39.690146999999996,-0.08251826011110397
91,91,TSENTRALNAYA 45           KRASN.YARUGA,"Центральная улица, 45, посёлок городского типа Красная Яруга, Краснояружский район, Белгородская область, Россия, 309420",496.5,8699.0,50.802065,35.656945,-0.04783485347896513
92,92,BAUMANA 16                YOSHKAR-OLA ,"улица Баумана, 16, Йошкар-Ола, Республика Марий Эл, Россия, 424019",496.5,8700.0,56.64108,47.84341,-0.09438394857516988
93,93,"70 LET OKTYABRYA, 25/2    OMSK        ","улица 70 лет Октября, 25/2, Омск, Россия, 644074",496.5,8702.0,54.976592000000004,73.33403100000001,-0.08490357516611999
94,94,KRASNOOKTYABRSKAYA 66V    MAYKOP      ,"Краснооктябрьская улица, 62, Майкоп, Республика Адыгея, Россия, 385006",496.5,8709.0,44.618387,40.107459999999996,-0.021940545842015585
95,95,SHOLOM-ALEYHAMA 72        BIROBIDZHAN ,"улица Шолом-Алейхема, 72, Биробиджан, Еврейская автономная область, Россия, 679016",496.5,8715.0,48.801131,132.906429,0.07325575442042899
96,96,LENINA 40                 EFREMOV     ,"улица Ленина, 40, Ефремов, Тульская область, Россия, 301840",496.5,8717.0,53.145073,38.105187,-0.05393145648515777
97,97,KASHIRINIKH 124           CHELYABINSK ,"улица Братьев Кашириных, 124, Челябинск, Россия, 454128",496.5,8720.0,55.174296,61.304511,-0.08112422369102341
98,98,AVTOMOBILISTOV 4A         ULAN-UDE    ,"проспект Автомобилистов, 4Ак1, Улан-Удэ, Республика Бурятия, Россия, 670045",496.5,8722.0,51.831086,107.657625,-0.11923022403327956
99,99,YAROSLAVSKAYA 56          UGLICH      ,"Ярославская улица, 56, Углич, Ярославская область, Россия, 152610",496.5,8731.0,57.532669999999996,38.333269,-0.02330640466529364
100,100,K.MARKSA 8                KURSK       ,"улица Карла Маркса, 8, Курск, Россия, 305004",496.5,8735.0,51.750199,36.191928000000004,-0.14175340176593873
101,101,LUNACHARSKOGO 49          OBOYAN      ,"улица Луначарского, 49, Обоянь, Курская область, Россия",496.5,8736.0,51.208488,36.280367,0.03122450469925518
102,102,AK. KIRENSKOGO 2          KRASNOYARSK ,"улица Академика Киренского, 2, Красноярск, Россия, 660074",496.5,8745.0,55.995649,92.786905,-0.09148681288490956
103,103,LENINA 23                 BRYANSK     ,"проспект Ленина, 23, Брянск, Россия, 241050",496.5,8750.0,53.239433999999996,34.35879,-0.027333947851448426
104,104,KIROVA 7A                 ASTRAKHAN   ,"улица Кирова, 7/28, Астрахань, Россия, 414000",496.5,8755.0,46.352484999999994,48.038362,-0.04529878585356543
105,105,OKTYABRSKAYA 4            VOLODARSKIY ,"Октябрьская площадь, 4, посёлок городского типа Володарский, Володарский район, Астраханская область, Россия, 416170",496.5,8756.0,46.402883,48.543027,-0.05870397594945995
106,106,"NABEREZHNAYA 1 MAY, 160   ASTRAKHAN   ","улица Набережная 1 Мая, 160/94, Астрахань, Россия, 414000",496.5,8759.0,46.343234,48.051675,-0.07256212672580185
107,107,BEZHITSKAYA 1/5           BRYANSK     ,"Бежицкая улица, 1к5, Брянск, Россия, 241007",496.5,8770.0,53.268374,34.355008000000005,-0.04295661014204959
108,108,KRILATAYA 2               KRASNODAR   ,"Крылатая улица, 2, жилой массив Пашковский, Краснодар, Россия, 350023",496.5,8771.0,45.011446,39.122529,-0.06185199719608433
109,109,SOVETSKIY 3               BIKIN       ,"Советский переулок, 3, Бикин, Хабаровский край, Россия, 682970",496.5,8781.0,46.824789,134.25341699999998,-0.0034579326085033856
110,110,PUSHKINA 22               ELETS       ,"улица Пушкина, 22, Елец, Липецкая область, Россия, 399772",496.5,8790.0,52.608066,38.501362,-0.08184239791870787
111,111,IPPODROMNAYA 15B          ELISTA      ,"Ипподромная улица, 15, Элиста, Республика Калмыкия, Россия, 358005",496.5,8797.0,46.321622999999995,44.233610999999996,-0.07983827673128033
112,112,KOMMUNARSKIY 18           BIYSK       ,"Коммунарский переулок, 18, Бийск, Алтайский край, Россия, 659300",496.5,13.0,52.540672,85.22168,-0.05035007441799007
113,113,VERKHNAYA DUBROVA 26ZH    VLADIMIR    ,"улица Верхняя Дуброва, 26Ж, Владимир, Россия, 600022",496.5,18.0,56.109039,40.344112,-0.09047449122094946
114,114,SOVETSKAYA 7              TOSNO       ,"Советская улица, 7, Тосно, Тосненское городское поселение, Ленинградская область, Россия, 187000",496.5,23.0,59.542333,30.880521999999996,-0.03724813854736477
115,115,PIONERSKAYA 10A           KHABAROVSK  ,"Пионерская улица, 10А, Хабаровск, Россия",496.5,24.0,48.458826,135.089668,0.009396823260080138
116,116,LENINA 32                 YUKHNOV     ,"улица Ленина, 32, Юхнов, Калужская область, Россия, 249910",496.5,29.0,54.740854000000006,35.225583,-0.050898436991619084
117,117,DZERZHINSKOGO 82/2        VELSK       ,"улица Дзержинского, 82, Вельск, Архангельская область, Россия, 165150",496.5,61.0,61.069724,42.112419,-0.06948519689808405
118,118,LENINA 2                  USMAN       ,"улица Ленина, 2, Усмань, Липецкая область, Россия",496.5,62.0,52.038882,39.73668,-0.056077265567492214
119,119,VOROSHILOVA 6/24          KRASNIY SULI,"улица Ворошилова, 6, Красный Сулин, Ростовская область, Россия",496.5,68.0,47.894769000000004,40.057549,-0.06626410445612932
120,120,MIRA 11A                  LAKINSK     ,"улица Мира, 11А, Лакинск, Собинский район, Владимирская область, Россия, 601241",496.5,72.0,56.022348,39.979908,-0.06330300247529215
121,121,SOVETSKAYA 82             STARONIZHEST,"Советская улица, 82, станица Старонижестеблиевская, Красноармейский район, Краснодарский край, Россия",496.5,75.0,45.377812,38.438713,0.08910534933985331
122,122,PSKOVSKAYA 2              VOLOGDA     ,"Псковская улица, 2, Вологда, Россия, 160034",496.5,76.0,59.201007,39.829368,-0.08820784687667625
123,123,BRYANSKAYA 67A            TRUBCHEVSK  ,"Брянская улица, 67А, Трубчевск, Брянская область, Россия, 242220",496.5,80.0,52.580391000000006,33.766477,-0.11489727343702412
124,124,KRUPSKOY 15               ZAKAMENSK   ,"улица Крупской, 15, Закаменск, Республика Бурятия, Россия, 671950",496.5,84.0,50.375026,103.285462,0.010163564887207271
125,125,VOLODARSKOGO 1            TARUSA      ,"улица Володарского, 1, Таруса, Калужская область, Россия",496.5,89.0,54.727084,37.181081,-0.1333332450980473
126,126,ASTRAKHANSKAYA 189A       TAMBOV      ,"Астраханская улица, 189А, Тамбов, Россия, 392005",496.5,93.0,52.675552,41.465308,-0.0778446091413019
127,127,LENINGRADSKAYA 58         KHABAROVSK  ,"Ленинградская улица, 58, Хабаровск, Россия, 680021",496.5,101.0,48.496609,135.07277,-0.08953466824085697
128,128,LEKONTA 1/1               OMSK        ,"улица Леконта, 1к1, Омск, Россия, 644020",496.5,106.0,54.940753,73.386556,-0.14500123147475488
129,129,"IGNATIEVSKOE AVE,17       BLAGOVESHENS","Игнатьевское шоссе, городской округ Благовещенск, Амурская область, Россия",496.5,119.0,50.351708,127.460204,-0.030739618192407617
130,130,TAEZHNAYA 32              KAA-KHEM    ,"Таёжная улица, посёлок городского типа Каа-Хем, Кызылский кожуун, Республика Тыва, Россия",496.5,121.0,51.693519,94.559263,0.011338967382267232
131,131,KRASNOARMEYSKAYA 137      KIZIL       ,"Красноармейская улица, 137, Кызыл, Республика Тыва, Россия",496.5,126.0,51.716229,94.440685,0.03331461011246056
132,132,KOOPERATIVNAYA 59         CHEKMAGUSH  ,"Кооперативная улица, 59, село Чекмагуш, Чекмагушевский район, Республика Башкортостан, Россия, 452200",496.5,132.0,55.138104000000006,54.653743999999996,-0.05199984917312545
133,133,BEREZOVIY 3A              SELENGINSK  ,"микрорайон Берёзовый, 3А, посёлок городского типа Селенгинск, Кабанский район, Республика Бурятия, Россия, 671247",496.5,139.0,52.00588,106.864125,0.054741890157150204
134,134,"POSHEKHONSKOE AVE,22      VOLOGDA     ","Пошехонское шоссе, 22, Вологда, Россия",496.5,145.0,59.197256,39.859246,-0.010273139439971709
135,135,ABB 1 DEKABRISTOV UL      KAZAN       ,"1-й переулок Декабристов, поселок Фрунзевец, Апрелевка, Наро-Фоминский городской округ, Московская область, Россия",1022.0,2940.0,55.529053000000005,37.026740999999994,-0.10583718748257466
136,136,ABB 24 KORABELNAYA        NIZHNEKAMSK ,"Корабельная улица, 24, Нижнекамск, Республика Татарстан, Россия, 423578",1022.0,4620.0,55.624388,51.7995,-0.08099983751451277
137,137,ABB 53 A YULIUSA FUCHIKA  KAZAN       ,"улица Юлиуса Фучика, 53А, Казань, Республика Татарстан, Россия, 420141",1022.0,294.0,55.74375500000001,49.203549,-0.12597963007001686
138,138,ABB 14 CHISTOPOLSKAYA     KAZAN       ,"Чистопольская улица, 14, Казань, Республика Татарстан, Россия, 420066",1022.0,1978.0,55.818574,49.108157,-0.07859949534907965
139,139,"ABB 11 PROLETARSKAYA      VYS.GORA,   ","Пролетарская улица, 11, посёлок городского типа Кесова Гора, Кесовогорский район, Тверская область, Россия, 171470",1022.0,1991.0,57.587228,37.296586,-0.08709143011786058
140,140,ABB 97 RIKHARDA ZORGE     KAZAN       ,"улица Рихарда Зорге, 97, Казань, Республика Татарстан, Россия, 420139",1022.0,4509.0,55.744429000000004,49.219772,-0.07706384345842962
141,141,ABB 141 POBEDY PR.        KAZAN       ,"проспект Победы, 141, Казань, Республика Татарстан, Россия, 420100",1022.0,4598.0,55.780956999999994,49.213125,-0.06557084537563818
142,142,ABB 32 LENINA             ZELENODOLSK ,"улица Ленина, 32, Зеленодольск, Республика Татарстан, Россия, 422550",1022.0,4665.0,55.846996999999995,48.500033,-0.06655856143748902
143,143,ABB 113A LENINA           ALMETEVSK   ,"улица Ленина, 113А, Альметьевск, Республика Татарстан, Россия, 423461",1022.0,4698.0,54.898178,52.272481,-0.0748998023959967
144,144,ABB 13 B. KHMELNICKOGO    CHELYABINSK ,"улица Богдана Хмельницкого, 13, Челябинск, Россия, 454047",1022.0,153.0,55.257591000000005,61.395833999999994,-0.14500123147475488
145,145,ABB METRO ST.PL. TUKAYA   KAZAN       ,"метро Площадь Габдуллы Тукая, Центральная линия, Казань, Республика Татарстан, Россия",1022.0,317.0,55.786065,49.124542,-0.08503765605085375
146,146,ABB 45 KH. MAVLYUTOVA     KAZAN       ,"улица Хусаина Мавлютова, 45, Казань, Республика Татарстан, Россия, 420101",1022.0,322.0,55.744617000000005,49.192832,-0.02753584856870541
147,147,"ABB 71 KRAJNOVA           BAZ.MATAKI, ","улица Крайнова, 71, село Базарные Матаки, Алькеевский район, Республика Татарстан, Россия, 422870",1022.0,323.0,54.904359,49.924034000000006,-0.06255262907926452
148,148,ABB 2 LUSHNIKOVA          KAZAN       ,"улица Лушникова, 2, Казань, Республика Татарстан, Россия, 420034",1022.0,329.0,55.818796,49.082347999999996,-0.11900714040733515
149,149,ABB 34 ENTUZIASTOV        CHEBOKSARY  ,"улица Энтузиастов, 34, Чебоксары, Чувашская Республика, Россия, 428010",1022.0,330.0,56.118791,47.183606,-0.105078490525171
150,150,ABB 6B NAB-CHELNINSKIJ    NAB.CHELNY  ,,1022.0,347.0,,,-0.14500123147475488
151,151,ABB 36A MAMADYSHSKIJ      KAZAN       ,"Мамадышский тракт, 36, Казань, Республика Татарстан, Россия",1022.0,354.0,55.795317000000004,49.229447,-0.10721077850870757
152,152,ABB 50A POBEDY PR.        KAZAN       ,"проспект Победы, 50А, Казань, Республика Татарстан, Россия, 420138",1022.0,365.0,55.748918999999994,49.207573,-0.06991247967757852
153,153,ABB 77 ZORGE              KAZAN       ,"улица Рихарда Зорге, 77, Казань, Республика Татарстан, Россия, 420110",1022.0,369.0,55.747627,49.214338,-0.07562818078365499
154,154,ABB 65 SHAMILYA USMANOVA  NAB.CHELNY  ,"улица Шамиля Усманова, 65, Набережные Челны, Республика Татарстан, Россия, 423831",1022.0,370.0,55.74926800000001,52.391697,-0.09851593172908016
155,155,"ABB 168 B. KRASNAYA       VYS.GORA,   ","Большая Красная улица, 168, село Высокая Гора, Высокогорский район, Республика Татарстан, Россия, 422701",1022.0,372.0,55.918932999999996,49.312991,-0.030877482484119364
156,156,ABB 32 LENINGRADSKAYA     KAZAN       ,"Ленинградская улица, 32, Казань, Республика Татарстан, Россия, 420037",1022.0,375.0,55.86679300000001,49.088214,-0.08993537454537529
157,157,ABB 113A LENINA           ALMETEVSK   ,"улица Ленина, 113А, Альметьевск, Республика Татарстан, Россия, 423461",1022.0,377.0,54.898178,52.272481,-0.06552047960209881
158,158,ABB 32 LENINA             ZELENODOLSK ,"улица Ленина, 32, Зеленодольск, Республика Татарстан, Россия, 422550",1022.0,1915.0,55.846996999999995,48.500033,-0.09361562708036664
159,159,ABB 34-12 SIBIRSKIJ TR.   KAZAN       ,"Сибирский тракт, 34к12, Казань, Республика Татарстан, Россия",1022.0,1939.0,55.816111,49.188412,-0.12191015749415587
160,160,ABB 1A KOROLEVA           ZELENODOLSK ,"улица Королёва, 1А, Зеленодольск, Республика Татарстан, Россия",1022.0,1949.0,55.852833999999994,48.566814,-0.12400822868766162
161,161,ABB 5 GRUZDEVA            KAZAN       ,"улица Груздева, 5, Казань, Республика Татарстан, Россия, 420012",1022.0,1950.0,55.78903100000001,49.145015,0.04301167939058696
162,162,ABB 2-1 LUNACHARSKOGO     ULYANOVSK   ,"улица Луначарского, 2с1, Ульяновск, Россия, 432012",1022.0,1951.0,54.263287,48.329201,-0.14500123147475488
163,163,ABB 1-1 SHKOLNYJ B-R      NAB.CHELNY  ,"Школьная улица, 1, поселок ЗЯБ, Набережные Челны, Республика Татарстан, Россия, 423806",1022.0,1957.0,55.690928,52.346511,-0.13214370581277513
164,164,27 OPALIKHINSKAYA STR.    EKATERINBURG,"Опалихинская улица, 27, Екатеринбург, Свердловская область, Россия, 620034",1942.0,255.0,56.854079000000006,60.559521,-0.06442458021801023
165,165,84 M.RYBALKO STR.         PERM        ,"улица Маршала Рыбалко, 84, Пермь, Россия, 614113",1942.0,161.0,58.008839,55.962213,-0.08276887475719676
166,166,52 TOKAREY ST.            EKATERINBURG,"улица Токарей, 52, Екатеринбург, Свердловская область, Россия, 620109",1942.0,169.0,56.829487,60.560563,-0.07525260297147814
167,167,"ST FURMANOVA,37           EKATERINBURG","улица Фурманова, 37, Екатеринбург, Свердловская область, Россия, 620142",1942.0,170.0,56.815645999999994,60.611812,-0.048793541589588776
168,168,12A BELORECHENSKAYA       EKATERINBURG,"Белореченская улица, 12А, микрорайон Юго-Западный, Екатеринбург, Свердловская область, Россия, 620102",1942.0,247.0,56.821026,60.567910999999995,0.02169337991397821
169,169,136 BEBELYA STR.          EKATERINBURG,"улица Бебеля, 136, Екатеринбург, Свердловская область, Россия, 620141",1942.0,253.0,56.86075699999999,60.552325,0.026573003665279392
170,170,60 KOMSOMOLSKIY AV.       PERM        ,"Комсомольская улица, 58, Пермь, Россия",1942.0,279.0,58.059226,56.61399399999999,0.028880191409929232
171,171,44A AVTOZAVODSKAYA STR.   PERM        ,"Автозаводская улица, 44А, Пермь, Россия, 614113",1942.0,283.0,58.006688,55.94933100000001,-0.006875071534618654
172,172,44A AVTOZAVODSKAYA STR.   PERM        ,"Автозаводская улица, 44А, Пермь, Россия, 614113",1942.0,284.0,58.006688,55.94933100000001,0.0300461246138357
173,173,172 KARLA MARKSA AV.      MAGNITOGORSK,"проспект Карла Маркса, 172, Магнитогорск, Челябинская область, Россия, 455049",1942.0,293.0,53.378440000000005,58.976383999999996,0.02358745386198309
174,174,166 TRUDA STR.            CHELYABINSK ,"улица Труда, 166, Челябинск, Россия, 454080",1942.0,196.0,55.170784,61.374562,0.009251294847123271
175,175,86 VEDENEEVA STR.         PERM        ,"улица Академика Веденеева, 86, Пермь, Россия, 614038",1942.0,200.0,58.103704,56.385436,-0.014296121068138769
176,176,13 REVOLYUTSII STR        PERM        ,"улица Революции, 13, Пермь, Россия",1942.0,204.0,58.007599,56.261908,0.03684681294472016
177,177,2A KIROVA STR.            CHELYABINSK ,"улица Кирова, 2А, Челябинск, Россия, 454084",1942.0,211.0,55.183780000000006,61.398106999999996,-0.00827596763768026
178,178,38 IVANA FRANKO STR       PERM        ,"улица Ивана Франко, 38, Пермь, Россия, 614056",1942.0,212.0,58.063254,56.354489,0.0051556292855728
179,179,15 ZHUKOVA STR.           MAGNITOGORSK,"улица Жукова, 15, Магнитогорск, Челябинская область, Россия, 455051",1942.0,213.0,53.35599200000001,58.970625,-0.054859815489407916
180,180,7 MOLODOGVARDEYTSEV       CHELYABINSK ,"улица Молодогвардейцев, 7, Челябинск, Россия, 454901",1942.0,217.0,55.204793,61.327311,-0.0053415141242836
181,181,7B PERMYAKOVA STR.        TUMEN       ,"улица Пермякова, 7Б, Тюмень, Россия, 625013",1942.0,1005.0,57.130309999999994,65.595566,-0.02513616249149841
182,182,16A BEREJKOVSK NAB        MOSCOW      ,,1942.0,1591.0,55.755814,37.617635,0.0800340870031678
183,183,2 NOVOBAYDAEVSKAYA        NOVOKUZNETSK,"Новобайдаевская улица, 2, микрорайон Новобайдаевский, Новокузнецк, Кемеровская область, Россия, 654084",1942.0,1839.0,53.78207,87.293635,-0.01279618485467263
184,184,35 SHIROKAYA STR.         NOVOSIBIRSK ,"Широкая улица, 35, Новосибирск, Россия, 630108",1942.0,1872.0,54.993153,82.854233,-0.060975800356932536
185,185,41-7 CHERNOY RECHKI       S.-PETERSBUR,"набережная Чёрной речки, 41к2А, Санкт-Петербург, Россия, 197342",1942.0,1901.0,59.985682999999995,30.306984000000003,0.01643941203192391
186,186,11 KATUKOVA STR.          LIPETSK     ,"улица Катукова, 11, Липецк, Россия, 398004",1942.0,390.0,52.580418,39.527436,0.07000397024664216
187,187,10 BABUSHKINA STR.        SANKT-PETERB,"улица Бабушкина, 10, Санкт-Петербург, Россия, 192029",1942.0,411.0,59.896719999999995,30.42345,0.026185066221667615
188,188,2-6 22-Y MKRN.            NAZAROVO    ,"22-й микрорайон, 2, Назарово, Красноярский край, Россия",1942.0,427.0,56.001791000000004,90.451716,-0.07303491034956516
189,189,3 VZLETNAYA STR.          KRASNOYARSK ,"автодорога Красноярск-Железногорск, 20 км, Берёзовский район, Красноярский край, Россия",1942.0,431.0,56.129780000000004,93.332317,-0.11016056794423673
190,190,55B KRASNAYA STR.         NOVOVELICHKO,"Красная улица, 55Б, станица Нововеличковская, Динской район, Краснодарский край, Россия",1942.0,434.0,45.275511,38.839919,0.061875366207584326
191,191,103/2 KUBOVAYA STR.       NOVOSIBIRSK ,"Кубовая улица, 103/2, Новосибирск, Россия, 630066",1942.0,438.0,55.128748,82.898601,0.0007007466601096274
192,192,113 MIRA AV.              TOGLIATTI   ,,1942.0,440.0,41.31344,36.32231,-0.08295616452805786
193,193,30A MOSKOVSKIY AV.        TOGLIATTI   ,"Московский проспект, 30, Тольятти, Самарская область, Россия, 445026",1942.0,442.0,53.523593000000005,49.256710999999996,-0.0005299449037010677
194,194,43 DUBROVINSKOGO ST       KRASNOYARSK ,"улица Дубровинского, 43, Красноярск, Россия, 660049",1942.0,448.0,56.006618,92.85708100000001,-0.13404772020703254
195,195,1 BELYAEVA STR.           ORSK        ,"улица Беляева, 1, микрорайон Новый город, Орск, Оренбургская область, Россия, 462430",1942.0,454.0,51.258168,58.432355,-0.08855924432536848
196,196,93 LENINA AV.             ORSK        ,"проспект Ленина, 93, микрорайон Новый город, Орск, Оренбургская область, Россия, 462429",1942.0,456.0,51.250519,58.452639000000005,-0.10638596185214794
197,197,525 KRASNIKH PARTIZ       KRASNODAR   ,"улица Красных Партизан, 525литД, Краснодар, Россия, 350049",1942.0,463.0,45.049819,38.967498,0.02340978752132777
198,198,3A GEN.SHTEMENKO          VOLGOGRAD   ,"улица Генерала Штеменко, 3А, Волгоград, Россия, 400105",1942.0,466.0,48.771273,44.564091999999995,-0.006850589105688349
199,199,24 50-LET OKTYABRYA       UFA         ,"улица 50-летия Октября, 24, Уфа, Республика Башкортостан, Россия, 450005",1942.0,469.0,54.737283,55.976666,-0.036416262446369016
200,200,8V MILITSEYSKAYA STR      U.-SAKHALINS,"Милицейская улица, 8, Южно-Сахалинск, Сахалинская область, Россия",1942.0,470.0,46.966405,142.73181499999998,0.041914455958882525
201,201,25. KUIBYSHEVA STR.       CHAPAEVSK   ,"улица Куйбышева, 25, Чапаевск, Самарская область, Россия, 446100",1942.0,472.0,52.978797,49.707926,-0.04619992458876603
202,202,138 MICHURINA STR         SAMARA      ,"улица Мичурина, 138, Самара, Россия, 443086",1942.0,476.0,53.217014,50.167594,0.024260703292680614
203,203,46/1 VYSOTSKOGO STR       NOVOSIBIRSK ,"улица Владимира Высоцкого, 46, Новосибирск, Россия",1942.0,489.0,55.02780500000001,83.02403199999999,-0.05554805341364954
204,204,OTKRITOE SHOSSE 9         MOSCOW      ,"Открытое шоссе, 9, Москва, Россия, 107370",1942.0,496.0,55.815413,37.738045,0.05303053219394768
205,205,21B LENINA AV.            YAROSLAVL   ,"проспект Ленина, 21, Ярославль, Россия, 150003",1942.0,501.0,57.637868000000005,39.871517,-0.021484700352336832
206,206,89 MELNIKAYTE STR         TYUMEN      ,"улица Мельникайте, 89, Тюмень, Россия, 625026",1942.0,505.0,57.139531999999996,65.57574,-0.1342043465078909
207,207,32 NOVOKOSINSKAYA         MOSCOW      ,"Новокосинская улица, 32/7, Москва, Россия, 111672",1942.0,507.0,55.742006999999994,37.867169,0.05054958166973895
208,208,20 SHEREMETEVSKAYA        MOSCOW      ,"Шереметьевская улица, 20, Москва, Россия, 129594",1942.0,510.0,55.80346899999999,37.618848,-0.06652861299218105
209,209,2 VETERANOV BLVD.         MYTISCHI    ,"бульвар Ветеранов, с2, Мытищи, Московская область, Россия, 141021",1942.0,522.0,55.909226000000004,37.720043,0.05958516785891312
210,210,10/1 SHABOLOVSKAYA STR    MOSCOW      ,"улица Шаболовка, 10к1, Москва, Россия, 119049",1942.0,533.0,55.723861,37.610053,0.04871931418679338
211,211,10 VOZDVIZHENKA STR       MOSCOW      ,"улица Воздвиженка, 10, Москва, Россия, 125009",1942.0,537.0,55.753301,37.606263,-0.018360119237916517
212,212,24/19 LUZHNIKI            MOSCOW      ,"улица Лужники, 24с19, Москва, Россия, 119270",1942.0,544.0,55.71253299999999,37.553226,-0.10396077534759847
213,213,80 ALTUFEVSKOE H/W.       MOSCOW      ,"Каширское шоссе, 80, Москва, Россия, 115569",1942.0,553.0,55.624505000000006,37.709092999999996,0.04084044056119073
214,214,133A MOZHAYSKOE H/W.      MOSCOW      ,,1942.0,556.0,46.729243,-116.997544,0.0615173036596214
215,215,13A SHIROKAYA STR         MOSCOW      ,"Широкая улица, 13А, Москва, Россия, 127224",1942.0,562.0,55.888104000000006,37.662452,0.003338239486750856
216,216,63A IZMAYLOVSKIY AV.      MOSCOW      ,,1942.0,568.0,51.700837,39.180371,0.008275996403292884
217,217,19 YARTSEVSKAYA STR.      MOSCOW      ,"Ярцевская улица, 19, Москва, Россия, 121552",1942.0,577.0,55.73859100000001,37.411004999999996,0.1157061201776452
218,218,14/2 BUMAZHNIY AVE        MOSCOW      ,,1942.0,587.0,51.684948,39.186857,-0.0522203549815792
219,219,18-1 ANDROPOVA STR.       MOSCOW      ,"проспект Андропова, 18к1, Москва, Россия, 115432",1942.0,589.0,55.695027,37.662812,-0.0961968395008744
220,220,48 LENINA AV.             NOVOROSSIYSK,"проспект Ленина, 48, Новороссийск, Краснодарский край, Россия, 353913",1942.0,594.0,44.692073,37.789187,0.009167381507292748
221,221,91/2 MIRA AVE.            MOSCOW      ,"проспект Мира, 91к2, Москва, Россия, 129085",1942.0,603.0,55.806115000000005,37.635431,0.025721514835642324
222,222,91/2 MIRA AVE.            MOSCOW      ,"проспект Мира, 91к2, Москва, Россия, 129085",1942.0,604.0,55.806115000000005,37.635431,0.044165968739876806
223,223,91/2 MIRA AVE.            MOSCOW      ,"проспект Мира, 91к2, Москва, Россия, 129085",1942.0,605.0,55.806115000000005,37.635431,0.0651079869197264
224,224,91/2 MIRA AVE.            MOSCOW      ,"проспект Мира, 91к2, Москва, Россия, 129085",1942.0,606.0,55.806115000000005,37.635431,0.044449064042238834
225,225,24/1 KOMSOMOLSKIY AVE     MOSCOW      ,"Комсомольская площадь, 32/40, Москва, Россия, 107140",1942.0,651.0,55.78278,37.650253,0.06301186695572203
226,226,24/1 KOMSOMOLSKIY AVE     MOSCOW      ,"Комсомольская площадь, 32/40, Москва, Россия, 107140",1942.0,652.0,55.78278,37.650253,0.08369315391332988
227,227,24/1 KOMSOMOLSKIY AVE     MOSCOW      ,"Комсомольская площадь, 32/40, Москва, Россия, 107140",1942.0,653.0,55.78278,37.650253,0.05251988108965897
228,228,33-1 PR. KOSMONAVTOV      KOROLEV     ,"проспект Космонавтов, 33к1, Королёв, Московская область, Россия, 141077",1942.0,677.0,55.910644,37.867708,0.07682170942653563
229,229,33-1 PR. KOSMONAVTOV      KOROLEV     ,"проспект Космонавтов, 33к1, Королёв, Московская область, Россия, 141077",1942.0,678.0,55.910644,37.867708,0.0871159510050686
230,230,33-1 PR. KOSMONAVTOV      KOROLEV     ,"проспект Космонавтов, 33к1, Королёв, Московская область, Россия, 141077",1942.0,679.0,55.910644,37.867708,0.05524369475944075
231,231,2 BOLSHAYA TULSKAYA ST.   MOSCOW      ,"Большая Тульская улица, 2, Москва, Россия, 115191",1942.0,700.0,55.709028,37.620761,0.036484776474882685
232,232,45 YANA RAYNISA ST.       MOSCOW      ,,1942.0,705.0,55.755814,37.617635,0.09772627473616588
233,233,45 YANA RAYNISA ST.       MOSCOW      ,,1942.0,706.0,55.755814,37.617635,0.06734199983579324
234,234,45 YANA RAYNISA ST.       MOSCOW      ,,1942.0,707.0,55.755814,37.617635,0.1622313862404432
235,235,45 YANA RAYNISA ST.       MOSCOW      ,,1942.0,708.0,55.755814,37.617635,0.1281522422059661
236,236,15 PROFSOYUZNAYA ST.      MOSCOW      ,"Профсоюзная улица, 15, Москва, Россия, 117218",1942.0,719.0,55.679138,37.565317,0.07373194186721405
237,237,15 PROFSOYUZNAYA ST.      MOSCOW      ,"Профсоюзная улица, 15, Москва, Россия, 117218",1942.0,720.0,55.679138,37.565317,0.08651358224155463
238,238,15 PROFSOYUZNAYA ST.      MOSCOW      ,"Профсоюзная улица, 15, Москва, Россия, 117218",1942.0,725.0,55.679138,37.565317,0.07240660882460555
239,239,15 PROFSOYUZNAYA ST.      MOSCOW      ,"Профсоюзная улица, 15, Москва, Россия, 117218",1942.0,728.0,55.679138,37.565317,0.07325867479736532
240,240,119 VERNADSKOGO AV.       MOSCOW      ,"проспект Вернадского, 119, Москва, Россия, 119571",1942.0,780.0,55.657621,37.482771,0.03653681920132017
241,241,104 PROFSOYUZNAYA ST.     MOSKVA      ,"Профсоюзная улица, 104, Москва, Россия, 117437",1942.0,913.0,55.64191999999999,37.523456,0.04470233857014213
242,242,104 PROFSOYUZNAYA ST.     MOSKVA      ,"Профсоюзная улица, 104, Москва, Россия, 117437",1942.0,915.0,55.64191999999999,37.523456,0.051185226116745496
243,243,1 NOVINKI ST.             MOSKVA      ,"улица Новинки, 1, Москва, Россия, 115470",1942.0,924.0,55.677671,37.666225,-0.0003928241126800797
244,244,1 NOVINKI ST.             MOSKVA      ,"улица Новинки, 1, Москва, Россия, 115470",1942.0,926.0,55.677671,37.666225,0.027479770990444533
245,245,1 NOVINKI ST.             MOSKVA      ,"улица Новинки, 1, Москва, Россия, 115470",1942.0,929.0,55.677671,37.666225,0.08096014043716365
246,246,1 NOVINKI ST.             MOSKVA      ,"улица Новинки, 1, Москва, Россия, 115470",1942.0,930.0,55.677671,37.666225,0.0629492558477282
247,247,56/2 PERERVA STR.         MOSCOW      ,"улица Перерва, 56/2, Москва, Россия, 109341",1942.0,948.0,55.657844999999995,37.747729,0.006865772365852916
248,248,56/2 PERERVA STR.         MOSCOW      ,"улица Перерва, 56/2, Москва, Россия, 109341",1942.0,949.0,55.657844999999995,37.747729,-0.03028979747072208
249,249,4-1 22-KM/ KIEVSKOE H/W.  MOSCOW      ,"срезка на 5 км, территория Спортивный клуб Ромашково, Москва, Россия",1942.0,977.0,55.749988,37.363538,0.060583296015891026
250,250,18 AVTOZAVODSKAYA STR.    MOSCOW      ,"Автозаводская улица, 18, Москва, Россия, 115280",1942.0,1075.0,55.705452,37.637749,0.06503827318056538
251,251,56/2 PERERVA STR.         MOSCOW      ,"улица Перерва, 56/2, Москва, Россия, 109341",1942.0,1162.0,55.657844999999995,37.747729,-0.02541897583462377
252,252,8 NOVATOROV BLVD.         S.-PETERBURG,"бульвар Новаторов, 8, Санкт-Петербург, Россия, 198216",1942.0,1443.0,59.850595,30.269379999999998,-0.004959832826328442
253,253,6 POLYARNIKOV STR.        S.-PETERBURG,"улица Полярников, 6, Санкт-Петербург, Россия, 192171",1942.0,1472.0,59.876549,30.43785,-0.05363009651606472
254,254,8 NOVATOROV BLVD.         S.-PETERBURG,"бульвар Новаторов, 8, Санкт-Петербург, Россия, 198216",1942.0,1677.0,59.850595,30.269379999999998,0.006593374273523836
255,255,8 NOVATOROV STR.          S.-PETERBURG,,1942.0,1680.0,59.79977,30.273027,-0.010433125117104845
256,256,85 40-LET POBEDY AVE      ROSTOV-NA-DO,"проспект 40-летия Победы, 85, Ростов-на-Дону, Россия, 344111",1942.0,1681.0,47.239101,39.827284000000006,-0.012380200705961077
257,257,23A PERMYAKOVA STR.       TYUMEN      ,"улица Пермякова, 23, Тюмень, Россия, 625051",1942.0,1704.0,57.118227000000005,65.57982700000001,-0.060015876467128415
258,258,23A PERMYAKOVA STR.       TYUMEN      ,"улица Пермякова, 23, Тюмень, Россия, 625051",1942.0,1705.0,57.118227000000005,65.57982700000001,-0.030632165082482427
259,259,49 GAGARINA               SAMARA      ,"улица Гагарина, 49, Самара, Россия, 443079",1942.0,1709.0,53.199923999999996,50.177017,0.0571243591442085
260,260,49 GAGARINA               SAMARA      ,"улица Гагарина, 49, Самара, Россия, 443079",1942.0,1710.0,53.199923999999996,50.177017,0.07733785262933969
261,261,199 G.IM.KRASNOYARSKIY RA KRASNOYARSK ,,1942.0,1712.0,56.010563,92.852572,0.048499918774498114
262,262,32 SOVETSKIY AV.          KEMEROVO    ,"Советский проспект, 32, Кемерово, Россия, 650991",1942.0,1734.0,55.3581,86.075412,0.004913183131201501
263,263,32 SOVETSKIY AV.          KEMEROVO    ,"Советский проспект, 32, Кемерово, Россия, 650991",1942.0,1735.0,55.3581,86.075412,0.020173217770813358
264,264,32 SOVETSKIY AV.          KEMEROVO    ,"Советский проспект, 32, Кемерово, Россия, 650991",1942.0,1736.0,55.3581,86.075412,0.011827645576843257
265,265,56 MIRA AVE               OMSK        ,"проспект Мира, 56, Омск, Россия, 644029",1942.0,1745.0,55.02971899999999,73.27894599999999,0.048588163073996465
266,266,90/1 LENINA AV.           KEMEROVO    ,"проспект Ленина, 90/1, Кемерово, Россия, 650066",1942.0,1746.0,55.345585,86.127748,0.06945395768042391
267,267,55 KIROVA                 NOVOKUZNETSK,"улица Кирова, 55, Новокузнецк, Кемеровская область, Россия, 654080",1942.0,1762.0,53.758889,87.138164,-0.013694054180142036
268,268,124B KRASNAYA STR         KRASNODAR   ,"Красная улица, 124, микрорайон Центральный, Краснодар, Россия",1942.0,1771.0,45.036076,38.975807,0.04905783980328098
269,269,124B KRASNAYA STR         KRASNODAR   ,"Красная улица, 124, микрорайон Центральный, Краснодар, Россия",1942.0,1774.0,45.036076,38.975807,0.03550886759489725
270,270,32A GAKKELEVSKAYA STR.    SANTK-PETERB,"Гаккелевская улица, 32, Санкт-Петербург, Россия, 197372",1942.0,1791.0,60.006395,30.256984000000003,0.011371561198269788
271,271,46 B.SADOVAYA STR.        ROSTOV-ON-DO,"Большая Садовая улица, 46/30, Ростов-на-Дону, Россия, 344002",1942.0,1824.0,47.219967,39.708302,-0.057828077980383814
272,272,66 SOVETSKAYA             LIPETSK     ,"Советская улица, 66, Липецк, Россия, 398001",1942.0,1843.0,52.605818000000006,39.57793,-0.048194552427837344
273,273,12 7-MIKRORAYON           RADUZHNIY   ,"микрорайон Радужный, 7, посёлок Рыбхоз, Богородский городской округ, Московская область, Россия",1942.0,1862.0,55.788833999999994,38.133412,-0.0494611022595088
274,274,49A YAROSLAVSKIY AV.      YAROSLAVL   ,"Ярославская улица, 53, Ярославль, Россия, 150006",1942.0,1866.0,57.57269300000001,39.920053,-0.03389683972273758
275,275,53 40-LET KOMSOMOLA       NOVOSIBIRSK ,"улица 40 лет Комсомола, 53, Новосибирск, Россия, 630098",1942.0,1873.0,54.864543999999995,82.981308,0.006237113223918536
276,276,66 LENINA STR.            DZERZHINSK  ,"проспект Ленина, 66, Дзержинск, Нижегородская область, Россия, 606010",1942.0,1889.0,56.236986,43.46282,-0.04067358299716933
277,277,171 LYUBLINSKAYA ST       MOSCOW      ,"Люблинская улица, 171, Москва, Россия, 109652",1942.0,722.0,55.646914,37.746912,0.012160971473561072
278,278,171 LYUBLINSKAYA ST       MOSCOW      ,"Люблинская улица, 171, Москва, Россия, 109652",1942.0,723.0,55.646914,37.746912,0.017663058692593415
279,279,171 LYUBLINSKAYA ST       MOSCOW      ,"Люблинская улица, 171, Москва, Россия, 109652",1942.0,724.0,55.646914,37.746912,0.01633845488491965
280,280,171 LYUBLINSKAYA ST       MOSCOW      ,"Люблинская улица, 171, Москва, Россия, 109652",1942.0,726.0,55.646914,37.746912,0.0185873240090233
281,281,79 KOMSOMOLSKIY AV.       TOMSK       ,"Комсомольский проспект, 79, Томск, Россия, 634041",1942.0,740.0,56.467484,84.980455,-0.020161691990498616
282,282,158A TIKHOOKEANSKAYA      KHABAROVSK  ,"Тихоокеанская улица, 158А, Хабаровск, Россия",1942.0,751.0,48.535599,135.051247,-0.037077781163590506
283,283,36 GORKOGO STR.           SARATOV     ,"улица имени А.М. Горького, 36, Саратов, Россия",1942.0,752.0,51.532167,46.03087,0.03326679730843367
284,284,36 GORKOGO STR.           SARATOV     ,"улица имени А.М. Горького, 36, Саратов, Россия",1942.0,753.0,51.532167,46.03087,-0.0027794785668605825
285,285,101 POBEDY STR.           SAMARA      ,"улица Победы, 101, Самара, Россия, 443009",1942.0,771.0,53.216254000000006,50.25694,0.01209296452077063
286,286,42 LENINA                 BERDSK      ,"улица Ленина, 42, Бердск, Новосибирская область, Россия, 633010",1942.0,800.0,54.761233,83.100605,-0.033242673616867814
287,287,15 KVARTAL 212            ANGARSK     ,"258-й квартал, 212, Ангарск, Иркутская область, Россия",1942.0,812.0,52.510652,103.886614,0.005069170884739559
288,288,5-30 28-KVARTAL           ACHINSK     ,"28-й квартал, 5/4, Ачинск, Красноярский край, Россия",1942.0,825.0,56.253202,90.474174,-0.0700862110141553
289,289,5-30 28-KVARTAL           ACHINSK     ,"28-й квартал, 5/4, Ачинск, Красноярский край, Россия",1942.0,826.0,56.253202,90.474174,-0.020708866784902108
290,290,4 PL.POBEDY               KALININGRAD ,"площадь Победы, 4, Калининград, Россия",1942.0,840.0,54.720859999999995,20.499734,-0.040413892592792364
291,291,20 KRASNIKH PARTIZAN      USOLIE-SIBIR,"проспект Красных Партизан, 20, Усолье-Сибирское, Иркутская область, Россия, 665460",1942.0,859.0,52.733118999999995,103.657948,0.03869509034139282
292,292,29 LENINA AV.             NIZHNIY NOVG,"проспект Ленина, 29, Нижний Новгород, Россия, 603140",1942.0,879.0,56.289106000000004,43.930052,0.04047562949031334
293,293,29 LENINA AV.             NIZHNIY NOVG,"проспект Ленина, 29, Нижний Новгород, Россия, 603140",1942.0,880.0,56.289106000000004,43.930052,0.010361316832015036
294,294,13 IOSIFA KOROLINSKOGO    SURGUT      ,"улица Иосифа Каролинского, 13, Сургут, Ханты-Мансийский автономный округ, Россия, 628406",1942.0,890.0,61.254571,73.447084,0.01586764670603277
295,295,71-1 MOZHAYSKOGO STR      TVER        ,"улица Можайского, 71к1, Тверь, Россия, 170030",1942.0,892.0,56.82038000000001,35.902006,-0.012881614000425076
296,296,4 BERINGA STR.            MURMANSK    ,"улица Беринга, 4, Мурманск, Россия, 183014",1942.0,895.0,68.915297,33.095507,-0.027402506307802738
297,297,79 KUIBYSHEVA STR.        OMSK        ,"улица Куйбышева, 79, Омск, Россия, 644001",1942.0,897.0,54.976535,73.399213,0.0767644071587546
298,298,79 KUIBYSHEVA STR.        OMSK        ,"улица Куйбышева, 79, Омск, Россия, 644001",1942.0,898.0,54.976535,73.399213,0.06339654954711334
299,299,51 BUDENNOVSKIY           ROSTOV-ON-DO,"Буденновский лес, Красногвардейский район, Белгородская область, Россия",1942.0,905.0,50.694253,38.324502,0.023142910818709655
300,300,51 BUDENNOVSKIY           ROSTOV-ON-DO,"Буденновский лес, Красногвардейский район, Белгородская область, Россия",1942.0,906.0,50.694253,38.324502,0.05177351623209555
301,301,13/16-1 B.POLYANKA        MOSCOW      ,"улица Малая Полянка, 13, Москва, Россия, 119180",1942.0,981.0,55.733624,37.616827,-0.016109496669004637
302,302,70 LET VLKSM 16/1         ORENBURG    ,"микрорайон 70-летия ВЛКСМ, 16/1, Оренбург, Россия",1942.0,1032.0,51.826733000000004,55.142805,-0.03683053950816742
303,303,62 METALLURGOV STR.       TULA        ,"улица Металлургов, 62, Тула, Россия, 300027",1942.0,1038.0,54.191356999999996,37.689653,-0.03924078351854871
304,304,65/4 LENINA STR.          UFA         ,"улица Ленина, 65/4, Уфа, Республика Башкортостан, Россия, 450006",1942.0,1041.0,54.738358999999996,55.95284300000001,-0.05463467846611848
305,305,4B I.YAKOVLEVA AVE        CHEBOKSARY  ,"проспект Ивана Яковлева, 4, Чебоксары, Чувашская Республика, Россия",1942.0,1074.0,56.10320600000001,47.26432,0.001273953121459421
306,306,14A VERNADSKOGO AVE       MOSCOW      ,"проспект Вернадского, 14А, Москва, Россия, 119454",1942.0,1088.0,55.677737,37.506882,0.051609145114746235
307,307,5D CHAADAEVA STR.         N.NOVGOROD  ,"улица Чаадаева, 5, Нижний Новгород, Россия, 603035",1942.0,1117.0,56.329277000000005,43.854288000000004,-0.05868189799854055
308,308,19 BEREZOVSKOGO           OMSK        ,"улица Березовского, 19, Омск, Россия, 644070",1942.0,1140.0,54.988526,73.383088,-0.008441139884245006
309,309,187V RODIONOVA STR.       N.NOVGOROD  ,"улица Родионова, 187, Нижний Новгород, Россия, 603093",1942.0,1158.0,56.30763100000001,44.073908,-0.02962858568284793
310,310,22 LENINGRADSKAYA S       KAZAN       ,"Ленинградская улица, 22, Казань, Республика Татарстан, Россия, 420127",1942.0,1169.0,55.861757,49.085591,-0.10589180542757114
311,311,142 N-DANCHENKO STR       NOVOSIBIRSK ,"улица Немировича-Данченко, 142, Новосибирск, Россия, 630087",1942.0,1175.0,54.988391,82.91475200000001,-0.06291050164279338
312,312,1B 2-YA CENTRALNAYA       UZHNO-SAKHAL,"2-я Центральная улица, 1Б, Южно-Сахалинск, Сахалинская область, Россия, 693017",1942.0,1183.0,46.900366999999996,142.742227,0.06598975968419007
313,313,62 ZELENIY AVE            MOSCOW      ,"Зелёная улица, территория Мытищи-16, Мытищи, Московская область, Россия",1942.0,1212.0,55.945322,37.662892,0.07376376478649366
314,314,44 KRASNOARMEYSKAYA       TOMSK       ,"Красноармейская улица, 44, Томск, Россия, 634061",1942.0,1219.0,56.47551899999999,84.966945,-0.0301619876737986
315,315,9 KIROVA STR              OMSK        ,"улица Кирова, 9, Омск, Россия, 644041",1942.0,1228.0,54.947951,73.41969399999999,-0.019419024978892908
316,316,122 LENINA AV.            TULA        ,"проспект Ленина, 122, Тула, Россия, 300026",1942.0,1245.0,54.152641,37.583490000000005,0.012869733512498486
317,317,1 STROENIE                KRASNIY BOR ,"посёлок Красный Бор, 1, Ярославский район, Ярославская область, Россия",1942.0,1250.0,57.640036,39.975848,0.012696248149679344
318,318,5A LENINA SQ.             KSTOVO      ,"площадь Ленина, 5А, Кстово, Нижегородская область, Россия, 607657",1942.0,1256.0,56.150498999999996,44.211296000000004,0.007009776152434488
319,319,76/1 VERSHININA STR       TOMSK       ,"улица Вершинина, 76/2, Томск, Россия, 634045",1942.0,1266.0,56.45115,84.965651,-0.10996322702685796
320,320,60 GEN.LIZYUKOVA ST       VORONEZH    ,"улица Генерала Лизюкова, 60, Воронеж, Россия, 394088",1942.0,1275.0,51.706134000000006,39.149308000000005,0.030305267219534218
321,321,210/1 B.BOGATKOVA         NOVOSIBIRSK ,"улица Бориса Богаткова, 210/1, Новосибирск, Россия, 630089",1942.0,1287.0,55.036597,82.977562,0.0064482128473013975
322,322,37 MATE ZALKI STR.        KRASNOYARSK ,"улица Мате Залки, 37, микрорайон Северный, Советский район, Красноярск, Россия, 660127",1942.0,1297.0,56.061278,92.936627,0.053165578034432635
323,323,40/2 TUKHACHEVSKOGO       KEMEROVO    ,"улица Тухачевского, 40/2, Кемерово, Россия, 650070",1942.0,1306.0,55.32654300000001,86.134359,-0.09779370204548543
324,324,107 UNIVERSITETSKIY       VOLGOGRAD   ,,1942.0,1307.0,48.636564,44.436055,0.044478507121084934
325,325,1A N.ERSHOVA STR.         KAZAN       ,"улица Николая Ершова, 1А, Казань, Республика Татарстан, Россия, 420061",1942.0,1330.0,55.7939,49.149506,-0.0738850659966635
326,326,19B MICHURINA             SAMARA      ,"улица Мичурина, 19В, Самара, Россия, 443013",1942.0,1337.0,53.203424,50.14042,0.08459402188457628
327,327,28 STROITELEY BLVD        KEMEROVO    ,,1942.0,1338.0,40.380566,49.821994,0.03326553848376925
328,328,12 LEN.KOMSOMOLA AV       ULYANOVSK   ,"проспект Ленинского Комсомола, 12, Ульяновск, Россия, 432072",1942.0,1345.0,54.381413,48.594356,-0.016064033369931858
329,329,221 B.BOGATKOVA STR       NOVOSIBIRSK ,"улица Бориса Богаткова, 221, Новосибирск, Россия, 630089",1942.0,1346.0,55.037252,82.976251,-0.08720581792517293
330,330,19B MICHURINA             SAMARA      ,"улица Мичурина, 19В, Самара, Россия, 443013",1942.0,1353.0,53.203424,50.14042,0.09653791942470766
331,331,219B A.PETROVA STR        BARNAUL     ,"улица Антона Петрова, 219, Барнаул, Алтайский край, Россия",1942.0,1357.0,53.358728,83.70182,-0.03819271531167322
332,332,61/1 GERTSENA STR         TOMSK       ,"улица Герцена, 61/1, Томск, Россия, 634021",1942.0,1371.0,56.472386,84.986384,-0.022243019739424198
333,333,5 PRIVOKZALNAYA SQ        GOLITSYNO   ,"Привокзальная площадь, 5, Голицыно, Одинцовский район, Московская область, Россия, 143040",1942.0,1373.0,55.616248999999996,36.98832,0.005172903754851539
334,334,38 ULYANOVSKOE H/W        SYZRAN      ,,1942.0,1380.0,53.374084,48.344005,0.05304086653829583
335,335,33 MOSKOVSKAYA STR.       SYZRAN      ,"Московская улица, 33, Сызрань, Самарская область, Россия, 446026",1942.0,1381.0,53.166354000000005,48.480414,-0.012519504008530696
336,336,16 B.SEMENOVSKAYA         MOSCOW      ,,1942.0,1384.0,55.425972,39.243478,0.09567657386704748
337,337,317-2 LENINA AV.          TOMSK       ,,1942.0,1389.0,40.529459,72.796461,-0.07134697674904729
338,338,98 50-LET OKTYABRYA       KURSK       ,"улица 50 лет Октября, 98, Курск, Россия, 305040",1942.0,1420.0,51.739715000000004,36.146213,-0.0683921684559528
339,339,11-1 M.KATUKOVA STR.      MOSCOW      ,"улица Маршала Катукова, 11к1, Москва, Россия, 123181",1942.0,1458.0,55.810966,37.403863,0.007662173175953055
340,340,7 KOZHEVNICHESKAYA STR    MOSCOW      ,"Кожевническая улица, 7, Москва, Россия, 115114",1942.0,1461.0,55.729838,37.645717,0.06154364051585804
341,341,6 FRUNZE STR.             TOGLIATTI   ,"улица Фрунзе, 6, Тольятти, Самарская область, Россия, 445051",1942.0,1484.0,53.514016000000005,49.298221999999996,-0.020623765864573814
342,342,30-2 RYAZANSKIY AV.       MOSCOW      ,"Рязанский проспект, 30к2, Москва, Россия, 109428",1942.0,1486.0,55.718095999999996,37.784065999999996,0.08038112469979125
343,343,57 KARLA MARKSA STR.      TOGLIATTI   ,"улица Карла Маркса, 57, Тольятти, Самарская область, Россия, 445011",1942.0,1488.0,53.510155000000005,49.414590000000004,-0.030375178596135106
344,344,7 PEREVERTKINA STR.       VORONEZH    ,"улица Переверткина, 7, Воронеж, Россия, 394063",1942.0,1490.0,51.686534,39.256746,-0.008979471686485063
345,345,20G TKACHEVA STR.         VOLGOGRAD   ,"улица Ткачёва, 20, Волгоград, Россия, 400050",1942.0,1492.0,48.723991,44.51729,0.023295579214220204
346,346,17 MKR OLMINSKOGO         STARIY OSKOL,"микрорайон Ольминского, 17, Старый Оскол, Белгородская область, Россия",1942.0,1503.0,51.309219,37.873053000000006,-0.016651608678981668
347,347,116 SAVUSHKINA STR.       SANKT-PETERB,"улица Савушкина, 116, Санкт-Петербург, Россия, 197374",1942.0,1509.0,59.985997999999995,30.218365000000002,-0.02719308164227064
348,348,123 LENINGRADSKIY AV.     YAROSLAVL   ,"Ленинградский проспект, 123, Ярославль, Россия, 150060",1942.0,1518.0,57.697731000000005,39.757925,0.050501684519973805
349,349,267 DOVATORA STR.         ROSTOV-ON-DO,"улица Доватора, 267, Ростов-на-Дону, Россия, 344090",1942.0,1524.0,47.23625,39.597846000000004,0.03430743644967831
350,350,23 AKSAYSKIY AV.          AKSAY       ,"Аксайский проспект, 23, Аксай, Ростовская область, Россия, 346720",1942.0,1526.0,47.290051,39.846534999999996,0.003805770978964359
351,351,2 LENINA STR.             KRASNOGORSK ,"улица Ленина, 2, Красногорск, Московская область, Россия",1942.0,1535.0,55.819454,37.320239,0.02367530357409494
352,352,1/3 PROSPEKT CHEKISTOV    KRASNODAR   ,"проспект Чекистов, 1/3, микрорайон Юбилейный, Краснодар, Россия, 350089",1942.0,1539.0,45.027712,38.905621999999994,0.049229523801944335
353,353,17 KULTUKSKIY TRAKT       SHELEKHOV   ,"Култукский тракт, 17, Шелехов, Иркутская область, Россия",1942.0,1541.0,52.205065999999995,104.082285,-0.04546977716110423
354,354,147 KIROVA STR.           SAMARA      ,"улица Кирова, Промышленный район, Самара, Россия",1942.0,1547.0,53.211234,50.264019,0.04419046940561143
355,355,8 DMITRIYA DONSKOGO BLVD. MOSCOW      ,"бульвар Дмитрия Донского, 8, Москва, Россия, 117628",1942.0,1558.0,55.568064,37.573806,-0.09610618985956956
356,356,34 SIBIRSKIY TRAKT        KAZAN       ,"Сибирский тракт, 34, Казань, Республика Татарстан, Россия",1942.0,1561.0,55.815752,49.182744,-0.07729474277403403
357,357,1 NAGORNAYA STR.          ARKHANGELSK ,"Нагорная улица, 1, Архангельск, Россия, 163071",1942.0,1568.0,64.553811,40.551964,0.01590806849943831
358,358,2G ROKOSSOVSKOGO STR      VOLGOGRAD   ,"улица Рокоссовского, 2, Волгоград, Россия, 400066",1942.0,1569.0,48.713833,44.498569,-0.060486009065581464
359,359,153/163 B.SADOVAYA STR    SARATOV     ,,1942.0,1577.0,53.216772,50.150652,-0.07808968350312964
360,360,10A SARATOVSKAYA STR      ENGELS      ,"Саратовская улица, 10А, Энгельс, Саратовская область, Россия, 413118",1942.0,1578.0,51.488557,46.113452,-0.09097819234113153
361,361,92 KARLA-MARKSA STR       KHABAROVSK  ,"улица Карла Маркса, 92, Хабаровск, Россия, 680013",1942.0,1585.0,48.492065000000004,135.089766,-0.047840828148366696
362,362,1 ZVENIGORODSKAYA STR.    S.-PETERBURG,"Звенигородская улица, 1, Санкт-Петербург, Россия, 191119",1942.0,1597.0,59.922688,30.335182,-0.027209161366298255
363,363,17-1B POLITEKHNICHESKAYA  S.-PETERBURG,"Политехническая улица, 17к1, Санкт-Петербург, Россия, 194021",1942.0,1609.0,59.999035,30.366191999999998,-0.008888891025265862
364,364,35A NEVSKIY AV.           S.-PETERBURG,"Невский проспект, 35, Санкт-Петербург, Россия, 191186",1942.0,1618.0,59.934172,30.332631,-0.024789589301745685
365,365,2/1A B.MOSKOVSKAYA STR.   S.-PETERBURG,"Большая Московская улица, 2/1, Санкт-Петербург, Россия, 191002",1942.0,1623.0,59.927409999999995,30.348109,-0.07511119580916573
366,366,17-1B POLITEKHNICHESKAYA  S.-PETERBURG,"Политехническая улица, 17к1, Санкт-Петербург, Россия, 194021",1942.0,1634.0,59.999035,30.366191999999998,-0.0308904259925197
367,367,29A POLITEKHNICHESKAYA ST S.-PETERBURG,"Политехническая улица, 29А, Санкт-Петербург, Россия, 194064",1942.0,1635.0,60.008931999999994,30.370890000000003,-0.07653248174263184
368,368,45 KOSMONAVTOV AV.        S.-PETERBURG,"проспект Космонавтов, 45, Санкт-Петербург, Россия, 196233",1942.0,1654.0,59.851214,30.350139000000002,-0.0075652945262400205
369,369,69 BUKHARESTSKAYA STR.    SANKT-PETERB,"Бухарестская улица, 69, Санкт-Петербург, Россия, 192286",1942.0,1659.0,59.849754000000004,30.397973999999998,-0.024739718819856645
370,370,16 RIZHSKIY AV.           PSKOV       ,"Рижский проспект, 16, Псков, Россия, 180007",1942.0,1673.0,57.817606000000005,28.315545,-0.05233747243524309
371,371,"Lenina ul., 204           Bogorodsk   ","улица Ленина, 204, Богородск, Нижегородская область, Россия, 607600",3185.5,1911.0,56.103251,43.513162,-0.12339282175354033
372,372,"Lenina pl., 5             Kstovo      ","площадь Ленина, 5, Кстово, Нижегородская область, Россия, 607657",3185.5,1927.0,56.151612,44.208718,-0.08863765569141964
373,373,"OBRUCHEVA, 27             MOSKVA      ","улица Обручева, 27к1, Москва, Россия, 117630",3185.5,2048.0,55.656859,37.536068,-0.11989334793677953
374,374,"LENINA, 217               TOMSK       ","проспект Ленина, 217, Томск, Россия, 634009",3185.5,2058.0,56.511615,84.944037,-0.07076842774963496
375,375,"KOMSOMOLSKIJ, 75          TOMSK       ","Комсомольский проспект, 75, Томск, Россия, 634050",3185.5,2060.0,56.468438,84.980994,-0.1072388101981512
376,376,"GAGARINA, 27              TOMSK       ","улица Гагарина, 27, Томск, Россия, 634050",3185.5,2068.0,56.479938,84.95108,-0.004544490182944736
377,377,"KURCHATOVA, 1             SEVERSK     ","улица Курчатова, 1, Северск, Томская область, Россия, 636037",3185.5,2082.0,56.589641,84.90209499999999,-0.08512316033661797
378,378,"AK.KOROLEVA,12            MOSKVA      ","улица Академика Королёва, 12, Москва, Россия, 127427",3185.5,2093.0,55.822878,37.606281,0.07469588682785817
379,379,"AK.KOROLEVA,12            MOSKVA      ","улица Академика Королёва, 12, Москва, Россия, 127427",3185.5,2094.0,55.822878,37.606281,0.003503468026472088
380,380,DRUJBY 11                 ORENBURG    ,"улица Дружбы, 11, Оренбург, Россия, 460052",3185.5,2096.0,51.834464000000004,55.147656000000005,-0.10007253688846812
381,381,KARAGANDINSKAJA 92        ORENBURG    ,"Карагандинская улица, 92, Оренбург, Россия, 460036",3185.5,2106.0,51.785484999999994,55.156055,-0.07545528159188256
382,382,"KOROSTELEVYH, 53          ORENBURG    ","проспект Братьев Коростелевых, 53, Оренбург, Россия, 460004",3185.5,2107.0,51.793345,55.070042,-0.0857875263302929
383,383,"CHKALOVA, 53-1            ORENBURG    ","улица Чкалова, 53/1, Оренбург, Россия, 460001",3185.5,2111.0,51.770846,55.138645999999994,-0.14307562751905464
384,384,SHARLYKSKOE SH.1          ORENBURG    ,"Шарлыкское шоссе, 1, Оренбург, Россия",3185.5,2113.0,51.841887,55.11866800000001,-0.031751889640818744
385,385,"UL. LENINA, 156           MIHAJLOVSK  ","улица Ленина, 156, Михайловск, Шпаковский район, Ставропольский край, Россия, 356240",3185.5,2130.0,45.137164,42.009993,0.031472652105389534
386,386,UFA KUVYKINA 18           UFA         ,"улица Степана Кувыкина, 18, Уфа, Республика Башкортостан, Россия, 450092",3185.5,2138.0,54.707685999999995,55.99978,-0.10489946592199001
387,387,B.HMELNICKOGO 16          NOVOSIBIRSK ,"улица Богдана Хмельницкого, 16, Новосибирск, Россия, 630075",3185.5,2153.0,55.069303000000005,82.94223199999999,-0.14352393621960854
388,388,"UL. NARYMSKAJA, 102       NOVOSIBIRSK ","Нарымская улица, 102, Новосибирск, Россия, 630049",3185.5,2160.0,55.051556000000005,82.9002,0.010484287859117682
389,389,"PR. ENERGETIKOV, 8        NOVOSIBIRSK ","проезд Энергетиков, 8, Новосибирск, Россия, 630108",3185.5,2162.0,55.011293,82.874364,-0.06419505210179811
390,390,"PL.TRUDA, 1               NOVOSIBIRSK ","площадь Труда, 1, Новосибирск, Россия, 630108",3185.5,2166.0,54.995540000000005,82.868453,-0.07174258086566655
391,391,"Gasheka, 8                OMSK        ","улица Ярослава Гашека, 8, микрорайон Московка-2, Омск, Россия",3185.5,2179.0,54.90894,73.451576,-0.04000620302555637
392,392,10 LET OKTYABRA 182       OMSK        ,"улица 10 лет Октября, 182, Омск, Россия, 644031",3185.5,2182.0,54.989254,73.461017,-0.0007665437143668469
393,393,"NEFTEZAVODSKAJA,53        OMSK        ","Нефтезаводская улица, 53, Омск, Россия, 644065",3185.5,2184.0,55.058275,73.250703,-0.12439658399799668
394,394,"6-STANCIONNAYA, 2-2       OMSK        ","6-й Станционный переулок, 2, микрорайон Московка, Омск, Россия, 644120",3185.5,2186.0,54.923305000000006,73.47321600000001,-0.11140106023122888
395,395,"ZHUKOVA, 74/2             OMSK        ","улица Маршала Жукова, 74к2, Омск, Россия, 644010",3185.5,2189.0,54.974437,73.38812800000001,-0.1213679280206939
396,396,"BARHATOVOI, 2             OMSK        ","улица Бархатовой, 2, микрорайон Заозёрный, Омск, Россия, 644110",3185.5,2193.0,55.048611,73.325829,-0.001531947457428444
397,397,"VOKZALNAYA, 22            OMSK        ","Вокзальная улица, 22, Привокзальный микрорайон, Омск, Россия, 644005",3185.5,2200.0,54.94064399999999,73.39526,-0.05441728934469535
398,398,"PR. MARKSA, 29A           OMSK        ","проспект Карла Маркса, 29А, Омск, Россия, 644010",3185.5,2206.0,54.974189,73.38279200000001,-0.043961789441316616
399,399,70 LET OKTJABRJA 15       OMSK        ,"улица 70 лет Октября, 15, Омск, Россия, 644074",3185.5,2211.0,54.98208399999999,73.319047,0.035430433821350804
400,400,"ROSTOVKA, 23              OMSK        ","посёлок Ростовка, 23, Омский район, Омская область, Россия",3185.5,2217.0,55.017865,73.581427,-0.07648067809190587
401,401,"KRASNYJ PUT, 32           OMSK        ","улица Красный Путь, 32, Омск, Россия, 644122",3185.5,2223.0,55.001437,73.352393,0.03537364649081979
402,402,NIKOLAEVA 15              KRASNOJARSK ,"улица Николаева, 15, микрорайон Зелёная Роща, Советский район, Красноярск, Россия",3185.5,2227.0,56.055367000000004,92.965688,0.06308008424190541
403,403,VESNY 1                   KRASNOJARSK ,"улица Весны, 1, микрорайон Взлётка, Советский район, Красноярск, Россия",3185.5,2229.0,56.034466,92.907836,-0.020708866784902108
404,404,MOSKOVSK. 70 KANSK        KANSK       ,"Московская улица, 70, Канск, Красноярский край, Россия, 663600",3185.5,2233.0,56.20411800000001,95.704633,0.03790539679558151
405,405,SOLNECHNAJA 1 IK7         ELITA       ,"Солнечная улица, 3, Москва, Россия, 115516",3185.5,2236.0,55.622263000000004,37.666144,-0.14500123147475488
406,406,"UL. CSHORSA, 80           KRASNOJARSK ","улица Щорса, 80, Красноярск, Россия, 660122",3185.5,2249.0,55.988575,92.939053,0.014625766745981003
407,407,MASHINOSTROITELEJ 6       DIVNOGORSK  ,"улица Машиностроителей, 6, Дивногорск, Красноярский край, Россия, 663090",3185.5,2254.0,55.956708,92.367993,0.00026844227219743227
408,408,METALLURGOV 34            KRASNOJARSK ,"проспект Металлургов, 34, Красноярск, Россия, 660005",3185.5,2255.0,56.046845999999995,92.946805,0.011715426467259316
409,409,DZERZHINSKOGO 26          KRASNOJARSK ,"улица Дзержинского, 26, Красноярск, Россия, 660017",3185.5,2267.0,56.013360999999996,92.85673100000001,-0.03554081794482897
410,410,CHEHOVA 122 ABAKAN        ABAKAN      ,"улица Чехова, 122А, Абакан, Республика Хакасия, Россия, 655017",3185.5,2270.0,53.728359999999995,91.435794,0.05417962894417566
411,411,"259V, BAYKALSKAYA         IRKUTSK     ","Байкальская улица, 259, Иркутск, Россия, 664050",3185.5,2275.0,52.257213,104.355265,-0.13314846120537496
412,412,"5, SEROVA ST.             KJAHTA      ","улица Серова, 13, город Кяхта, Республика Бурятия, Россия",3185.5,2283.0,50.352064,106.445897,-0.14500123147475488
413,413,"12, KVARTAL 192           ANGARSK     ","258-й квартал, 192, Ангарск, Иркутская область, Россия",3185.5,2284.0,52.510631000000004,103.88529399999999,-0.07004958780182967
414,414,"28A, LENINA ST.           GUSINOOZERSK","улица Ленина, 28А, Гусиноозёрск, Селенгинский район, Республика Бурятия, Россия, 671160",3185.5,2286.0,51.287683,106.534443,0.061213468618554936
415,415,UL.VOEVODINA 24           SAMARA      ,"улица Воеводина, 24, Самара, Россия, 443109",3185.5,2305.0,53.23553199999999,50.29882,-0.059229238248736
416,416,"STARA ZAGORA,167G,1       SAMARA      ","улица Стара Загора, 167, Самара, Россия, 443087",3185.5,2308.0,53.24238199999999,50.230224,-0.07402811775297444
417,417,"NOVO-SADOVAJA,D.106       SAMARA      ","Ново-Садовая улица, 106, Самара, Россия, 443068",3185.5,2315.0,53.217187,50.148972,-0.06781028300815473
418,418,POBEDY 26                 NOVOKUJBYSHE,"проспект Победы, 26, Новокуйбышевск, Самарская область, Россия, 446204",3185.5,2321.0,53.096068,49.969875,-0.08390285191476354
419,419,"UL. A.NEVSKOGO, 53        KALININGRAD ","улица Александра Невского, 53, Калининград, Россия",3185.5,2327.0,54.731789,20.530879000000002,0.06575351283831156
420,420,"UL.DZERZHINSKOGO,71       YAKUTSK     ","улица Дзержинского, 71, Якутск, Республика Саха (Якутия), Россия",3185.5,2333.0,62.062115000000006,129.739787,0.020818281865033626
421,421,"UL. B. CHIZHIKA, 3        JAKUTSK     ","улица Богдана Чижика, 3, Якутск, Республика Саха (Якутия), Россия, 677000",3185.5,2335.0,62.04438199999999,129.756388,-0.043360742542122487
422,422,"UL. KALVICA, 14-5         YAKUTSK     ","улица Кальвица, 14/5, Якутск, Республика Саха (Якутия), Россия, 677009",3185.5,2339.0,62.049758999999995,129.7463,0.07537942432607445
423,423,"UL. KURASHOVA, 28         YAKUTSK     ","улица Курашова, 28, Якутск, Республика Саха (Якутия), Россия, 677000",3185.5,2348.0,62.032993000000005,129.736903,-0.06131522402243604
424,424,"UL. LENINA, 6             NERUNGRI    ","улица Ленина, 6, Советский территориальный округ, муниципальное образование Город Тула, Тульская область, Россия",3185.5,2357.0,54.200475,37.607690999999996,0.02812289257707128
425,425,"UL. LENINA, 6             NERUNGRI    ","улица Ленина, 6, Советский территориальный округ, муниципальное образование Город Тула, Тульская область, Россия",3185.5,2358.0,54.200475,37.607690999999996,0.06931806202429569
426,426,"KARLA MARKSA, 144G        HABAROVSK   ","улица Карла Маркса, 144, Хабаровск, Россия, 680031",3185.5,2372.0,48.504406,135.112314,-0.105078490525171
427,427,LENINA 77                 SVOBODNYJ   ,"улица Ленина, 77, Свободный, Амурская область, Россия, 676456",3185.5,2382.0,51.38363,128.13208999999998,-0.0915144479111778
428,428,"KLUBNAYA, 23              FOKINO      ","Клубная улица, 23, Фокино, Приморский край, Россия, 692880",3185.5,2388.0,42.974959999999996,132.408924,-0.04638552480581279
429,429,"PR. POBEDY, D.67A         PETROPAVLOVS","проспект Победы, 67, Петропавловск-Камчатский, Камчатский край, Россия, 683902",3185.5,2410.0,53.072021,158.587323,-0.003877507767979224
430,430,"PROLETARSKAYA, D.3        USSURIJSK   ","Пролетарская улица, 3, Уссурийск, Приморский край, Россия, 692512",3185.5,2413.0,43.801221999999996,131.936464,-0.05014357600495797
431,431,"UL.SHILKINSKAYA, 42       VLADIVOSTOK ","Шилкинская улица, 38, Владивосток, Приморский край, Россия, 690066",3185.5,2416.0,43.118596000000004,131.932035,0.020855039380651426
432,432,"UL.NEKRASOVA, 115A        USSURIJSK   ","улица Некрасова, 115А, Уссурийск, Приморский край, Россия, 692525",3185.5,2417.0,43.804266999999996,131.949319,-0.02558628613942828
433,433,"KORABELNAYA NAB,D.4       VLADIVOSTOK ","улица Корабельная Набережная, 4, Владивосток, Приморский край, Россия",3185.5,2423.0,43.113937,131.889833,-0.08452755760636935
434,434,KRASNOZNAMENNAY 224       USSURIJSK   ,"Краснознамённая улица, 224, Уссурийск, Приморский край, Россия",3185.5,2425.0,43.813082,131.953748,-0.0387969181576469
435,435,"PR-T MIRA, D.255          U-SAHALINSK ","проспект Мира, 255, Южно-Сахалинск, Сахалинская область, Россия, 693013",3185.5,2449.0,46.934086,142.74626,-0.11946608587566478
436,436,"UKRAINSKAYA, 78           U-SAHALINSK ","Украинская улица, 78, Южно-Сахалинск, Сахалинская область, Россия",3185.5,2450.0,46.984218,142.720182,-0.09683584390781856
437,437,"VAHITOVA UL., 12          LENINOGORSK ","улица Вахитова, 12, Лениногорск, Республика Татарстан, Россия, 423258",3185.5,2463.0,54.594099,52.448201,-0.07599622617258556
438,438,60 LET OKTYABRYA-1        BELGOROD    ,"СНТ 60 лет Октября, 60, Старый Оскол, Белгородская область, Россия",3185.5,2477.0,51.285909000000004,37.851161,-0.053138287446554335
439,439,ENISEJSKAJA D19           MOSKVA      ,"19-й микрорайон, Мытищи, Московская область, Россия",3185.5,2484.0,55.900824,37.699948,-0.009112798320391772
440,440,PRESNENSKAJA              MOSKVA      ,,3185.5,2491.0,55.747044,37.541719,0.006006035747644714
441,441,"PROFSOJUZNAJA,142         MOSKVA      ","Профсоюзная улица, 142, Москва, Россия, 117321",3185.5,2494.0,55.626213,37.510152000000005,-0.018489185489307447
442,442,ORSHANSKAJA D5            MOSKVA      ,"Оршанская улица, 5, Москва, Россия, 121552",3185.5,2495.0,55.740563,37.408382,0.01936905002815328
443,443,"HOROSHEVSKOE SH,V38       MOSKVA      ","Хорошёвское шоссе, 38, Москва, Россия, 123007",3185.5,2539.0,55.776502,37.53711,0.016730739994995608
444,444,"HOROSHEVSKOE SH,V38       MOSKVA      ","Хорошёвское шоссе, 38, Москва, Россия, 123007",3185.5,2540.0,55.776502,37.53711,0.027592190258665942
445,445,"HOROSHEVSKOE SH,V38       MOSKVA      ","Хорошёвское шоссе, 38, Москва, Россия, 123007",3185.5,2541.0,55.776502,37.53711,-0.060083858760055175
446,446,"HOROSHEVSKOE SH,V38       MOSKVA      ","Хорошёвское шоссе, 38, Москва, Россия, 123007",3185.5,2542.0,55.776502,37.53711,-0.08207247651595476
447,447,"HOROSHEVSKOE SH,V38       MOSKVA      ","Хорошёвское шоссе, 38, Москва, Россия, 123007",3185.5,2543.0,55.776502,37.53711,0.0010828060077148725
448,448,"HOROSHEVSKOE SH,V38       MOSKVA      ","Хорошёвское шоссе, 38, Москва, Россия, 123007",3185.5,2544.0,55.776502,37.53711,0.04158931371819972
449,449,"HOROSHEVSKOE SH,V38       MOSKVA      ","Хорошёвское шоссе, 38, Москва, Россия, 123007",3185.5,2545.0,55.776502,37.53711,0.0621392337408641
450,450,"NOSOVIHINSKOE SH,45       REUTOV      ","Носовихинское шоссе, 45, Реутов, Московская область, Россия, 143969",3185.5,2555.0,55.752283,37.887246999999995,-0.032254425744358224
451,451,"KOMSOMOLSKAJA P.,2        MOSKVA      ",,3185.5,2557.0,55.773611,37.65567,-0.07191304977656893
452,452,"SORMOVSKIJ PR.,VL.9       MOSKVA      ","Сормовский проезд, 9, Москва, Россия, 109444",3185.5,2563.0,55.707725,37.800028999999995,0.021793895798192263
453,453,"CHERVISHEVSKIJ, 23        TJUMEN      ","Червишевский тракт, 23, Тюмень, Россия",3185.5,2584.0,57.126236,65.523063,-0.08484274324029112
454,454,A. LOGUNOVA D.5A          TJUMEN      ,"улица Александра Логунова, 5А, Тюмень, Россия, 625016",3185.5,2586.0,57.120011,65.57389,-0.08251244618915754
455,455,RESPUBLIKI D.86 K1        TJUMEN      ,"улица Республики, 86к1, Тюмень, Россия, 625048",3185.5,2603.0,57.146260999999996,65.552653,-0.0643096897079827
456,456,"TUL.KRASNOARM,PR,11       TULA        ","садовое товарищество Грибники, Венёвский район, Тульская область, Россия",3185.5,2611.0,54.606403,38.225867,-0.08872928508302658
457,457,"TUL.OKTJABRSKAJA,48       TULA        ","Октябрьская улица, 48, Тула, Россия, 300002",3185.5,2612.0,54.212281999999995,37.621606,-0.1169736092258521
458,458,LETCH. PILJUTOVA 11       SANKT-PETERB,"улица Лётчика Пилютова, 11к1, Санкт-Петербург, Россия, 198206",3185.5,2618.0,59.840736,30.139187,-0.07927799530257625
459,459,"BUHARESTSKAJA, 89         SANKT-PETERB","Бухарестская улица, 89, Санкт-Петербург, Россия, 192283",3185.5,2619.0,59.833027,30.414053999999997,-0.1272541928639112
460,460,"TOSNO, SOVETSKAJA 8       TOSNO       ","Советская улица, 8, Тосно, Тосненское городское поселение, Ленинградская область, Россия, 187000",3185.5,2622.0,59.54176700000001,30.880684000000002,-0.005696744800391103
461,461,PR-KT LENINA  D. 25       BALASHIHA   ,"проспект Ленина, 25, Балашиха, Московская область, Россия, 143900",3185.5,2628.0,55.79766,37.939124,-0.03873668311773976
462,462,"K. POBEDY, 62             KOLPASHEVO  ","улица Победы, 62, Колпашево, Томская область, Россия, 636462",3185.5,2634.0,58.32495,82.891701,-0.08476983860060065
463,463,"PR-T LENINA, 46           VLADIMIR    ","проспект Ленина, 46, Владимир, Россия, 600022",3185.5,2653.0,56.118635999999995,40.352053000000005,-0.04403393914914802
464,464,"UL. LENINSKAJA, 54        PETROPAVLOVS","Ленинская улица, 54, Петропавловск-Камчатский, Камчатский край, Россия",3185.5,2670.0,53.01953,158.647842,-0.06769643167631459
465,465,"UL. KIROVA, D.19          ARTEM       ","улица Кирова, 19, Артём, Приморский край, Россия",3185.5,2674.0,43.356278,132.184022,-0.08524555335600953
466,466,CHB L.KOMSOMOLA 21A       CHEBOKSARY  ,"улица Ленинского Комсомола, 21А, Чебоксары, Чувашская Республика, Россия, 428020",3185.5,2680.0,56.107583999999996,47.280947999999995,-0.038247354094269916
467,467,"UL.TUHACHEVSKOGO,17       STAVROPOL   ","улица Тухачевского, 17, Ставрополь, Россия, 355040",3185.5,2692.0,45.016027,41.912471999999994,-0.07126259400450323
468,468,"TUHACHEVSKOGO,14,K2       STAVROPOL   ","улица Тухачевского, 14/2, Ставрополь, Россия, 355040",3185.5,2693.0,45.012427,41.918427,-0.06916027116326295
469,469,ST.M.KRASNYJ PROSPE       NOVOSIBIRSK ,"метро Красный проспект, Ленинская линия, Новосибирск, Россия",3185.5,2698.0,55.041168000000006,82.917429,-0.04506033731284805
470,470,"UL.BALTIJSKAJA,29         NOVOSIBIRSK ","Балтийская улица, 29, микрорайон Шлюз, Советский район, Новосибирск, Россия, 630058",3185.5,2702.0,54.854942,83.050658,-0.10417183219485134
471,471,"UL.MALAHOVA,62            BARNAUL     ","улица Малахова, 62, Барнаул, Алтайский край, Россия, 656055",3185.5,2706.0,53.366218,83.703743,-0.06867219532995042
472,472,"UL.OSTROVSKOGO, 34B       BARNAUL     ","улица Островского, 34/202, Барнаул, Алтайский край, Россия, 656066",3185.5,2712.0,53.37078,83.689666,-0.0788806783289728
473,473,"UL.VLASIHINSKAJA,65       BARNAUL     ","Власихинская улица, 65, Барнаул, Алтайский край, Россия, 656006",3185.5,2732.0,53.326218000000004,83.690492,-0.05195133362220145
474,474,"ZAOZERNAIA, 11-1          OMSK        ","Заозёрная улица, 11/1, Омск, Россия, 644090",3185.5,2744.0,55.04659399999999,73.316505,-0.012265404452061484
475,475,"KR.G. ROSSIJSKAJA,6       OMSK        ",,3185.5,2746.0,,,-0.1226587789971816
476,476,"HIMIKOV, 30               OMSK        ","улица Химиков, 30, микрорайон Городок Нефтяников, Омск, Россия, 644100",3185.5,2748.0,55.043123,73.295727,-0.0030518230876046357
477,477,"KOSMICHESKIJ, 24A         OMSK        ","Космический проспект, 24А, посёлок Чкаловский, Омск, Россия",3185.5,2749.0,54.973889,73.456292,-0.13036510817011462
478,478,ALEKSEEVA 17              KRASNOJARSK ,"улица Алексеева, 17, Красноярск, Россия, 660098",3185.5,2778.0,56.053663,92.919146,0.014713920565570516
479,479,MOLOKOVA 17               KRASNOJARSK ,"улица Молокова, 17, Красноярск, Россия, 660135",3185.5,2785.0,56.03929300000001,92.9025,0.045232240029516695
480,480,"9 PJATILETKI, 28          SOSNOVOBORSK","улица 9 Пятилетки, 28, Сосновоборск, Красноярский край, Россия, 662501",3185.5,2786.0,56.122354,93.32928100000001,-0.052861204877190836
481,481,UL. TOLSTOGO 69           KRASNOJARSK ,"улица Толстого, 69, Красноярск, Россия, 660028",3185.5,2787.0,56.021055000000004,92.809857,-0.14329929946967082
482,482,LENINA 160                KRASNOJARSK ,"улица Ленина, 160, Красноярск, Россия, 660021",3185.5,2795.0,56.011973,92.838082,-0.10506056034569257
483,483,"UL.LAZURNAJA, 4-3         NOVOSIBIRSK ","Лазурная улица, 4/3, Новосибирск, Россия, 630133",3185.5,2817.0,55.033754,83.00931800000001,-0.1032287403218178
484,484,"PR.STROITELEJ, 16         BARNAUL     ","проспект Строителей, 16, Барнаул, Алтайский край, Россия, 656015",3185.5,2818.0,53.352004,83.76357,-0.05672871380437384
485,485,"TJULENINA,9               NOVOSIBIRSK ","улица Тюленина, 9, микрорайон Родники, Калининский район, Новосибирск, Россия",3185.5,2820.0,55.10892,82.950218,-0.0639828208754296
486,486,"PR.ENERGETIKOV,9          NOVOSIBIRSK ","проезд Энергетиков, 9, Новосибирск, Россия, 630108",3185.5,2822.0,55.009094,82.877427,-0.0319717034306937
487,487,"UL.KIROVA,25              NOVOSIBIRSK ","улица Кирова, 25, Новосибирск, Россия, 630102",3185.5,2823.0,55.018283,82.942205,0.015958990430350668
488,488,"UL. FRUNZE, 238           NOVOSIBIRSK ","улица Фрунзе, 238, Новосибирск, Россия, 630112",3185.5,2829.0,55.03896999999999,82.960728,-0.104632077661578
489,489,"UL.JARINSKAJA,18          NOVOSIBIRSK ","Яринская улица, 12, Новосибирск, Россия, 630029",3185.5,2836.0,55.020987,82.88385,-0.13030685513744053
490,490,KRAS.RAB 42               KRASNOJARSK ,"проспект имени Газеты Красноярский Рабочий, 42, Красноярск, Россия, 660014",3185.5,2839.0,56.016637,92.985855,0.019359186108852143
491,491,MOLOKOVA 17               KRASNOJARSK ,"улица Молокова, 17, Красноярск, Россия, 660135",3185.5,2840.0,56.03929300000001,92.9025,0.03691258160970274
492,492,"D. 63B, UL. SMOL'NAYA     MOSKVA","Смольная улица, 63Б, Москва, Россия, 125445",5478.0,8383.0,55.870112,37.469808,-0.05272977715877928
493,493,"D. 2A, UL. MAKOVSKOGO     ODINTSOVO","улица Маковского, 2А, Одинцово, Московская область, Россия, 143006",5478.0,8387.0,55.670731999999994,37.280956,-0.008778708434706921
494,494,"D. 1, UL. BATAREINAYA     VYBORG","Батарейная улица, 1, Выборг, Ленинградская область, Россия, 188810",5478.0,8392.0,60.7059,28.767801000000002,-0.09485338910171796
495,495,"D. 3, UL. KARLA MARKSA    IVANOVO","улица Карла Маркса, 3, Иваново, Россия, 153002",5478.0,8393.0,57.016865,40.973633,0.012759739946002586
496,496,"D. 9, UL. VIZIROVA        NOVOCHERKASS","улица Визирова, 9/2, Новочеркасск, Ростовская область, Россия, 346406",5478.0,8396.0,47.484707,40.061727000000005,-0.05783531659402823
497,497,"D. 12, SOOR. 1, LIT. A, P SANKT-PETERB","А-181 Скандинавия, 132-й километр, Выборгский район, Ленинградская область, Россия",5478.0,8412.0,60.667632999999995,28.913884999999997,-0.025082099392995855
498,498,PL. KOMENDANTSKAYA        SANKT-PETERB,,5478.0,8413.0,47.593356,-122.384031,-0.0373994933043668
499,499,"D. 16, UL. BAUMANA        YOSHKAR-OLA ","улица Баумана, 16, Йошкар-Ола, Республика Марий Эл, Россия, 424019",5478.0,8418.0,56.64108,47.84341,-0.05144623138887379
500,500,"D. 27 V, UL. OKRUZHNAYA   PENZA","Окружная улица, 27, Пенза, Россия, 440031",5478.0,8420.0,53.161398,44.979024,-0.05661898228515608
501,501,"D. 41, UL. MIRA           PENZA","улица Мира, 41, Пенза, Россия",5478.0,8421.0,53.188432999999996,44.970048999999996,0.03869055331949868
502,502,"D. 162 B, UL. LADOZHSKAYA PENZA","Ладожская улица, 162, Пенза, Россия, 440064",5478.0,8422.0,53.221143999999995,44.877361,-0.03654116180983314
503,503,"D. 248, UL. PROLETARSKAYA RUBTSOVSK","Пролетарская улица, 248, Рубцовск, Алтайский край, Россия, 658223",5478.0,8423.0,51.504391,81.21892199999999,-0.06897166315830244
504,504,"D. 1, UL. DEPOVSKAYA      CHITA","Деповская улица, 2, Чита, Забайкальский край, Россия, 672014",5478.0,8425.0,52.033735,113.464721,-0.10312499884173408
505,505,"3/1, UL. TURKMENSKAYA     BIYSK","3-й микрорайон, 1, Московский, Москва, Россия",5478.0,8433.0,55.59690500000001,37.344538,-0.050626685528738495
506,506,"D. 23, KORP. 1, UL. MATRO BIYSK",,5478.0,8436.0,,,-0.13724014160742906
507,507,"D. 40, UL. UBILEINAYA     TOLYATTI","Юбилейная улица, 40, Тольятти, Самарская область, Россия, 445037",5478.0,8439.0,53.50101899999999,49.273231,-0.0256018772497254
508,508,"D. 60A, UL. MOSKOVSKAYA   DIMITROVGRAD","Московская улица, 60А, Димитровград, Ульяновская область, Россия, 433513",5478.0,8448.0,54.211229,49.598718,-0.08021517471444972
509,509,"D. 85 A, UL. BELANOVA     KALININGRAD ","улица Беланова, 85А, микрорайон Чкаловск, Калининград, Россия",5478.0,8449.0,54.772639,20.446985,-0.08508649845141465
510,510,"D. 13, LIT. A, UL. IZHORS KOLPINO","деревня Колпино, Краснохолмский район, Тверская область, Россия",5478.0,8454.0,58.104241,37.012252000000004,-0.10651484558081188
511,511,"D. 1, UL. ZAVODSKAYA      ATAMANOVKA P","Заводская улица, 3, посёлок городского типа Атамановка, Читинский район, Забайкальский край, Россия, 672530",5478.0,8458.0,51.917638000000004,113.65343899999999,-0.03172118961546838
512,512,"D. 25, UL. GROMOVOI       TOLYATTI","улица Громовой, 25, Тольятти, Самарская область, Россия, 445045",5478.0,8461.0,53.488189,49.476538,-0.022631883888576572
513,513,"D. 7, UL. SUHE-BATORA     BARNAUL","улица Сухэ-Батора, 7, Барнаул, Алтайский край, Россия, 656066",5478.0,8472.0,53.350553000000005,83.692702,-0.07075914878198795
514,514,"D. 72, UL. REVOLUCIONNAYA TOLYATTI","Революционная улица, 72, Тольятти, Самарская область, Россия, 445028",5478.0,4725.0,53.510048,49.270401,-0.06912429312675038
515,515,"D. 56, UL. FRUNZE         NIZHNIY TAGI","улица Фрунзе, 56, Нижний Тагил, Свердловская область, Россия, 622002",5478.0,4728.0,57.922688,59.940447,-0.13293370541329255
516,516,"D. 16V, PR-KT KALININA    BARNAUL","проспект Калинина, 16, Барнаул, Алтайский край, Россия, 656002",5478.0,4731.0,53.361205000000005,83.77127800000001,-0.028967345964293977
517,517,"D. 118, UL. URINA         BARNAUL","улица Юрина, 118, Барнаул, Алтайский край, Россия, 656053",5478.0,4734.0,53.360625,83.73398900000001,-0.05105073110998789
518,518,"D. 22, UL. PANFILOVCEV    BARNAUL","улица Панфиловцев, 22, Барнаул, Алтайский край, Россия, 656057",5478.0,4735.0,53.345489,83.674224,-0.01133231412954627
519,519,"D. 109, UL. 1 MAYA        PAVLOVSKIY P","улица 1 Мая, село Павловская Слобода, городской округ Истра, Московская область, Россия",5478.0,4737.0,55.819990000000004,37.083982,-0.0707498714673147
520,520,"D. 81/1, UL. LERMONTOVA   IRKUTSK","улица Лермонтова, 81/1, Иркутск, Россия, 664074",5478.0,4742.0,52.264737,104.259765,-0.05785703847370945
521,521,"D. 22, UL. KIROVA         KHOR RP     ","улица Кирова, 22, рабочий посёлок Хор, район им. Лазо, Хабаровский край, Россия",5478.0,4755.0,47.886051,134.963643,-0.018683386606010117
522,522,"D. 4, SH. UZHNOE          TOLYATTI","Южное шоссе, 4, Тольятти, Самарская область, Россия, 445004",5478.0,4758.0,53.549108999999994,49.360017,-0.008516902259528142
523,523,"D. 33, UL. SVETLAYA       UTASH P     ","Светлая улица, поселок Уташ, городской округ Анапа, Краснодарский край, Россия",5478.0,4813.0,45.090152,37.311561,-0.14371187653826864
524,524,"D. 6, UL. KOMMUNISTICHESK KRASNOUSOLSK","Коммунистическая улица, 6, посёлок Липки, район Южное Бутово, Юго-Западный административный округ, Москва, Россия, 117623",5478.0,4814.0,55.506071999999996,37.580777000000005,-0.0712438608367541
525,525,"D. 9A, UL. 8 MARTA        OKTYABRSKIY ","улица 8 Марта, 8А, Октябрьский, Республика Башкортостан, Россия",5478.0,4816.0,54.505095,53.515786,-0.11002235082406607
526,526,"D. 148, UL. KIROVA        ARTEM","улица Кирова, 148, Артём, Приморский край, Россия, 692751",5478.0,4827.0,43.377283,132.237831,0.026193718523694717
527,527,"D. 9, UL. BERINGA         TOMSK","улица Беринга, 9, Томск, Россия, 634063",5478.0,4828.0,56.517137,85.035738,-0.02550061836721866
528,528,"D. 17, UL. NOVOURAL'SKAYA NOVOSIBIRSK ","Новоуральская улица, 17, микрорайон Пашино, Калининский район, Новосибирск, Россия, 630900",5478.0,4830.0,55.176249,82.96186,0.050092314647517545
529,529,"D. 106, UL. POPOVA        SMOLENSK","улица Попова, 106, Смоленск, Россия, 214036",5478.0,4837.0,54.758454,32.110792,-0.0216362059411326
530,530,"D. 15A, UL. MORISA TOREZA NOVOKUZNETSK","улица Тореза, 15А, Новокузнецк, Кемеровская область, Россия, 654038",5478.0,4850.0,53.836801,87.179154,-0.0482728157423929
531,531,"D. 30, UL. KIROVA         YAKUTSK","улица Кирова, 30, Якутск, Республика Саха (Якутия), Россия, 677027",5478.0,4852.0,62.032740000000004,129.720877,0.05271521202871396
532,532,"D. 4, UL. YALAGINA        ELEKTROSTAL ","улица Ялагина, 4, Электросталь, Московская область, Россия, 144010",5478.0,4863.0,55.770644,38.433934,-0.017382206465991756
533,533,"D. 1, UL. SPORTIVNAYA     SELYATINO RP","Спортивная улица, 1, рабочий посёлок Селятино, Наро-Фоминский городской округ, Московская область, Россия, 143345",5478.0,4869.0,55.519626,36.98682,0.027658123589268745
534,534,UL. GOGOLYA               NOVOSIBIRSK ,,5478.0,4871.0,55.044686,82.945421,-0.05702365445008326
535,535,"D. 76A, UL. KLUCHEVSKAYA  ULAN-UDE","Ключевская улица, 76А, Улан-Удэ, Республика Бурятия, Россия, 670013",5478.0,4878.0,51.82032,107.658478,0.023846034604568654
536,536,"D. 171, UL. MOSKOVSKAYA   KIROV","Московская улица, 171, Киров, Россия, 610048",5478.0,4883.0,58.602761,49.5972,-0.0684809028542829
537,537,"D. 38, UL. HRUSTAL'NAYA   ULYANOVSK","Хрустальная улица, 38, Ульяновск, Россия, 432044",5478.0,4884.0,54.258568999999994,48.333709999999996,-0.08701531092411803
538,538,"D. 12, UL. TRUDA          DOMNA S     ","улица Труда, 12, село Домна, Читинский район, Забайкальский край, Россия",5478.0,4886.0,51.898425,113.15861100000001,0.012533430519873944
539,539,"D. 3A, PROEZD KOSMICHESKI PETROPAVLOVS","Жуков проезд, 3с2, Москва, Россия, 115054",5478.0,4893.0,55.723496,37.637415999999995,0.04227041867904867
540,540,"D. 8A, UL. KUZNECOVA      CHELYABINSK ","улица Кузнецова, 8А, Челябинск, Россия, 454028",5478.0,4898.0,55.115023,61.349212,-0.10276352248669478
541,541,"D. 14, UL. DEREVENSKAYA   VLADIVOSTOK ","Деревенская улица, 14, Владивосток, Приморский край, Россия",5478.0,4900.0,43.135789,131.927876,-0.014064453284374834
542,542,"D. 41, UL. BELYAEVSKAYA   ORENBURG","Беляевская улица, 41, Оренбург, Россия, 460045",5478.0,4907.0,51.719254,55.131927000000005,-0.11399564966271175
543,543,"D. 13, UL. UZHNYI OBHOD   STAVROPOL","улица Южный Обход, 13, Ставрополь, Россия, 355021",5478.0,4908.0,44.989686999999996,41.935208,-0.07743166603526251
544,544,"D. 73, UL. ROZY LUKSEMBUR TOMSK","улица Розы Люксембург, 73, Томск, Россия, 634009",5478.0,4909.0,56.501470999999995,84.9517,-0.031002738025954664
545,545,"D. 14, UL. MIHEENKO       KHOTKOVO","улица Михеенко, 12, Хотьково, Сергиево-Посадский район, Московская область, Россия, 141371",5478.0,4912.0,56.251352000000004,37.979001000000004,-0.03399750933735314
546,546,"D. 7A, UL. PIONERSKAYA    POLETAEVO P ","Пионерская улица, 7А, посёлок Полетаево, Сосновский район, Челябинская область, Россия, 456520",5478.0,4913.0,55.038129000000005,61.11581999999999,-0.11021991633331572
547,547,"D. 58, UL. USPENSKOGO     VLADIVOSTOK ","улица Успенского, 58, Владивосток, Приморский край, Россия, 690024",5478.0,4928.0,43.236473,132.012228,-0.032360843570977973
548,548,"D. 37A, SH. OKRUZHNOE     ELABUGA","Окружное шоссе, 37А, Елабуга, муниципальное образование город Елабуга, Республика Татарстан, Россия, 423606",5478.0,4929.0,55.777089000000004,52.009535,-0.08715494787885147
549,549,"D. 2, PER. SADOVYI        PETROPAVLOVS","Садовый переулок, 2, Петропавловск-Камчатский, Камчатский край, Россия, 683013",5478.0,4933.0,52.980532,158.680451,0.015084687504418553
550,550,"D. 48A, TRAKT SARMANOVSKI NABEREZHNYE ","Сармановский тракт, 48А, Набережные Челны, Республика Татарстан, Россия, 423803",5478.0,4934.0,55.69463199999999,52.337582,-0.06069207829555508
551,551,"D. 42, UL. REVOLUCII 1905 ULAN-UDE","улица Революции 1905 года, 23, Улан-Удэ, Республика Бурятия, Россия, 670034",5478.0,4937.0,51.837714,107.5892,-0.10431301345591597
552,552,"D. 78, UL. LENINA         OREKHOVO-ZUE","улица Ленина, 78, Орехово-Зуево, Московская область, Россия, 142600",5478.0,4946.0,55.807992000000006,38.987386,0.0035101554365334856
553,553,"D. 55, PR-KT LENINA       BARNAUL","проспект Ленина, 55, Барнаул, Алтайский край, Россия, 656049",5478.0,4951.0,53.345606999999994,83.778249,0.03771620167914034
554,554,"D. 36, UL. KIROVA         ULYANOVSK","улица Кирова, 36, Ульяновск, Россия",5478.0,4958.0,54.29421800000001,48.373416,-0.14500123147475488
555,555,"D. 3-31, UL. KRASNAYA     SAMARA","Красная улица, 3, Самара, Россия",5478.0,4966.0,53.317181999999995,50.29687,-0.04371280949720821
556,556,"D. 28, UL. GAGARINA       YAROSLAVL","улица Гагарина, 28, Ярославль, Россия, 150046",5478.0,4979.0,57.584217,39.838675,-0.0303324705358602
557,557,"D. 126, UL. BLUHERA       CHELYABINSK ","улица Блюхера, 126, Челябинск, Россия, 454087",5478.0,4982.0,55.108539,61.349309999999996,0.022936095980423333
558,558,"D. 5B, B-R UNOSTI         BELGOROD","бульвар Юности, 5, Белгород, Россия, 308036",5478.0,4983.0,50.560848,36.56825,-0.030537789395437782
559,559,"D. 4, UL. SHERBAKOVA      EKATERINBURG","улица Щербакова, 4, Екатеринбург, Свердловская область, Россия, 620023",5478.0,4985.0,56.788548999999996,60.64901999999999,-0.023284027893631317
560,560,"D. 2, UL. PIONERSKOI PRAV KRASNOYARSK ","улица имени Газеты Пионерская Правда, 2, Красноярск, Россия, 660122",5478.0,4997.0,55.991279000000006,92.939286,0.049639270800972066
561,561,LIT. U                    ROSHCHINSKIY,"4-й Рощинский проезд, 8к2, Москва, Россия, 115191",5478.0,5001.0,55.709480000000006,37.609002000000004,-0.12198453723417002
562,562,"D. 13, UL. GAGARINA       SEVERODVINSK","улица Гагарина, 13, Северодвинск, Архангельская область, Россия, 164501",5478.0,5003.0,64.560036,39.815462,-0.05619638159631693
563,563,"D. 27, UL. GUBKINA        BELGOROD","улица Губкина, 27, Белгород, Россия, 308036",5478.0,5006.0,50.565437,36.558836,-0.08346286902282905
564,564,"D. 9, UL. MANEVROVAYA     EKATERINBURG","Маневровая улица, 9, микрорайон Старая Сортировка, Железнодорожный район, Екатеринбург, Свердловская область, Россия, 620050",5478.0,5008.0,56.872698,60.515485,-0.07447957251876286
565,565,"D. 51, UL. SVOBODY        IVANOVO","улица Свободы, 51, Иваново, Россия, 153045",5478.0,5009.0,57.015939,41.005425,-0.024617163785729097
566,566,"D. 91, PR-KT OBVODNYI KAN ARKHANGELSK ",,5478.0,5021.0,,,-0.06918727101133021
567,567,"D. 203, UL. TRUDA         CHELYABINSK ","улица Труда, 203, Челябинск, Россия, 454080",5478.0,5023.0,55.171051,61.355976,-0.011187278252846796
568,568,"D. 23D, UL. MALINOVSKOGO  ROSTOV-NA-DO","улица Малиновского, 23, Ростов-на-Дону, Россия, 344090",5478.0,5025.0,47.226686,39.612686,-0.004406775500904566
569,569,"D. 21, PR-KT OLIMPIISKII  MYTISHCHI","Олимпийский проспект, 21, Мытищи, Московская область, Россия, 141006",5478.0,5034.0,55.925102,37.754224,-0.09281594601992826
570,570,"160, UL. ORENBURGSKII TRA KAZAN","Оренбургский тракт, 160, Казань, Республика Татарстан, Россия",5478.0,5042.0,55.725761999999996,49.189535,-0.08372403221596063
571,571,"D. 62, KORP. 284, PR-KT V ROSTOV-NA-DO","Ворошиловский проспект, 62/284, Ростов-на-Дону, Россия",5478.0,5054.0,47.232946000000005,39.714609,0.010163564887207271
572,572,"STR. 22, UL. PANFILOVA    VOLOKOLAMSK ","улица Панфилова, Волоколамск, Московская область, Россия",5478.0,5057.0,56.02932,35.960944,-0.047655931386638165
573,573,"D. 3, KV-L 5-I            SAMARA","5-й квартал, 3, посёлок Красная Глинка, Красноглинский район, Самара, Россия",5478.0,5060.0,53.37424,50.182775,-0.02418289051663737
574,574,"D. 174, UL. RUBEZHNAYA    UFA","Рубежная улица, 174, Уфа, Республика Башкортостан, Россия, 450018",5478.0,5066.0,54.674918000000005,55.929056,-0.03539476235724293
575,575,"D. 55A, UL. AZINA         SARAPUL","улица Азина, 55, Сарапул, Удмуртская Республика, Россия, 427974",5478.0,5070.0,56.46739399999999,53.806982999999995,-0.004044742720164094
576,576,"D. 33, UL. BURDENKO       NIZHNIY NOVG","улица Бурденко, 33, микрорайон Северный, Нижний Новгород, Россия, 603095",5478.0,5083.0,56.270066,43.892493,-0.05701652777121071
577,577,"D. 169, UL. KUIBYSHEVA    RASSKAZOVO G","улица Куйбышева, 169, Рассказово, Тамбовская область, Россия, 393250",5478.0,5087.0,52.664149,41.888729,-0.017186154925408453
578,578,"D. 17/11, UL. NEKRASOVA   PSKOV","улица Некрасова, 17, Псков, Россия, 180000",5478.0,5090.0,57.814508999999994,28.340069,-0.0944277793022183
579,579,"D. 8, UL. VOLZHSKAYA 2-YA KOSTROMA","2-я Волжская улица, 8, Кострома, Россия, 156009",5478.0,5094.0,57.744211,40.976724,-0.11263034324810585
580,580,"D. 2, UL. LENINA          KRASNOGORSK ","улица Ленина, 2, Красногорск, Московская область, Россия",5478.0,5098.0,55.819454,37.320239,-0.0048969269382260075
581,581,"D. 36, SH. VOTKINSKOE     IZHEVSK","Воткинское шоссе, 36, Ижевск, Удмуртская Республика, Россия, 426039",5478.0,5099.0,56.885681999999996,53.233077,-0.1153103358862846
582,582,"D. 29, LIT. A, UL. ODOEVS SANKT-PETERB","КАД, 29-й километр, внешнее кольцо, Санкт-Петербург, Россия",5478.0,5115.0,59.891773,29.667877,-0.02090797807569784
583,583,"D. 90, UL. MAKSIMA GOR'KO IZHEVSK","улица Максима Горького, 90, Ижевск, Удмуртская Республика, Россия, 426008",5478.0,5120.0,56.84749300000001,53.201124,-0.07170477454402027
584,584,"D. 8, KORP. 2, UL. SOSNOV KIROVO-CHEPE","Сосновая улица, 8к2, Кирово-Чепецк, Кировская область, Россия, 613047",5478.0,5126.0,58.538568000000005,50.032299,-0.05481197775355096
585,585,"D. 1B, UL. SUHONSKAYA     VOLOGDA","Сухонская улица, 1, Вологда, Россия, 160019",5478.0,5149.0,59.24391,39.907225,-0.07207456217424972
586,586,"D. 83, PR-KT POBEDY       PENZA","проспект Победы, 83, Пенза, Россия, 440047",5478.0,5160.0,53.228277,44.940369,-0.020253075785985872
587,587,"D. 6, PR-KT UL'YANOVSKII  ULYANOVSK",,5478.0,5169.0,54.344575,48.575141,-0.010810303788851046
588,588,"D. 86, UL. VEDENEEVA      PERM","улица Академика Веденеева, 86, Пермь, Россия, 614038",5478.0,5170.0,58.103704,56.385436,-0.029485582928113714
589,589,"D. 13, UL. REVOLUCII      PERM","улица Революции, 13, Пермь, Россия",5478.0,5172.0,58.007599,56.261908,-0.011644472141758686
590,590,"D. 194, STR. 2, UL. SOVET TAMBOV","СНТ Выбор, 194, село Немчиновка, Одинцовский район, Московская область, Россия",5478.0,5176.0,55.711868,37.360186999999996,-0.009937317948847129
591,591,"D. 80G, UL. METALLURGOV   TULA","улица Металлургов, 80, Тула, Россия, 300027",5478.0,5180.0,54.19347,37.685674,-0.12614061383276773
592,592,"D. 13A, UL. GOLUBYE DALI  SOCHI","улица Голубые Дали, 13А, микрорайон Адлер, Сочи, Краснодарский край, Россия",5478.0,5184.0,43.451996,39.90639,0.002415438946183501
593,593,"D. 70/2, UL. SOVETSKAYA   RTISHCHEVO G","Советская улица, 70/2, Ртищево, Саратовская область, Россия, 412031",5478.0,5204.0,52.248915999999994,43.771068,-0.0132862498086669
594,594,"D. 14, UL. KUZNECOVOI     MOLODEZHNYY ","посёлок Молодёжный, 14, городской округ Подольск, Московская область, Россия",5478.0,5209.0,55.32476,37.489589,-0.08240790643017176
595,595,"D. 154 V, PR-KT LENINA    RYBINSK","проспект Ленина, 154, Рыбинск, Ярославская область, Россия, 152912",5478.0,5212.0,58.05645500000001,38.806717,-0.09260381454217956
596,596,"D. 29, LIT. A, UL. ODOEVS SANKT-PETERB","КАД, 29-й километр, внешнее кольцо, Санкт-Петербург, Россия",5478.0,5224.0,59.891773,29.667877,-0.01947444575515689
597,597,"D. 70, PR-KT MORSKOI      SEVERODVINSK","Морской проспект, 70, Северодвинск, Архангельская область, Россия, 164523",5478.0,5227.0,64.535197,39.777733000000005,-0.03067511972511945
598,598,"D. 2, PR-KT SEROVA        RYBINSK","проспект Серова, 2, Рыбинск, Ярославская область, Россия, 152920",5478.0,5237.0,58.06125,38.775088000000004,-0.046618459134796966
599,599,"D. 19, UL. KIROVA         ARTEM","улица Кирова, 19, Артём, Приморский край, Россия",5478.0,5249.0,43.356278,132.184022,0.0930080093421823
600,600,"D. 76, SH. KINESHEMSKOE   KOSTROMA","Кинешемское шоссе, 76, Кострома, Россия, 156016",5478.0,5271.0,57.739815,41.016779,-0.046478573551112574
601,601,"D. 66, UL. PROLETARSKAYA  MAGADAN","Пролетарская улица, 66, Магадан, Россия, 685000",5478.0,5275.0,59.557058999999995,150.824531,-0.04605538326428252
